nmeasim,1.3.2
~$GPRMC,090919.634,A,3500.0,S,13830.0,E,5.0,15.0,220622,,,*03
$IIVHW,15.0,T,15.0,M,5.0,N,9.3,K*5A
$GPVTG,15.0,T,15.0,M,5.0,N,9.3,K*41
$IIHDT,15.0,T*16
$GPGLL,3500.0,S,13830.0,E,090919.634,A*2F
$GPGGA,090919.634,3500.0,S,13830.0,E,1,4,1.5,2.0,M,,,,*26
$GPGSA,A,3,8,11,15,22,,,,,,,,,1.5,1.5,1.5*0A
$GPZDA,090919.634,22,06,2022,-04,00*72
!AIVDO,1,1,,A,17PaewhP0jar0;1cv@h0UPNV0000,0*5A
!AIVDM,1,1,,A,17PaewhP0jar0;1cv@h0UPNV0000,0*58
$WIMWD,285.0,T,285.0,M,11.0,N,5.7,M*68
$WIMWV,294.4,R,12.1,N,A*1A
$IIMTW,7.5,C*21
$SDDPT,8.0,0.3*5C
$SDDBT,26.2,f,8.0,M,4.4,F*38
$SDDBK,26.2,f,8.0,M,4.4,F*27
$SDDBS,26.2,f,8.0,M,4.4,F*3F
!AIVDO,2,1,9,A,57Paewh00001<To7;?@plD5<Tl0000000000000U1@:551c992TnA3QF,0*6A
!AIVDO,2,2,9,A,@00000000000002,2*5D
!AIVDM,2,1,9,A,57Paewh00001<To7;?@plD5<Tl0000000000000U1@:551c992TnA3QF,0*68
!AIVDM,2,2,9,A,@00000000000002,2*5F
$IIRPM,E,1,0,10.5,A*7C
$IIRPM,E,2,0,10.5,A*7F

~$GPRMC,090920.635,A,3500.0,S,13830.0,E,5.0,15.0,220622,,,*08
$IIVHW,15.0,T,15.0,M,5.0,N,9.3,K*5A
$GPVTG,15.0,T,15.0,M,5.0,N,9.3,K*41
$IIHDT,15.0,T*16
$GPGLL,3500.0,S,13830.0,E,090920.635,A*24
$GPGGA,090920.635,3500.0,S,13830.0,E,1,4,1.5,2.0,M,,,,*2D
$GPGSA,A,3,8,11,15,22,,,,,,,,,1.5,1.5,1.5*0A
$GPZDA,090920.635,22,06,2022,-04,00*79
!AIVDO,1,1,,A,17PaewhP0jar0;1cv@h0UPN`0000,0*6C
!AIVDM,1,1,,A,17PaewhP0jar0;1cv@h0UPN`0000,0*6E
$WIMWD,285.0,T,285.0,M,11.0,N,5.7,M*68
$WIMWV,294.4,R,12.1,N,A*1A
$IIMTW,7.5,C*21
$SDDPT,8.0,0.3*5C
$SDDBT,26.2,f,8.0,M,4.4,F*38
$SDDBK,26.2,f,8.0,M,4.4,F*27
$SDDBS,26.2,f,8.0,M,4.4,F*3F
!AIVDO,2,1,9,A,57Paewh00001<To7;?@plD5<Tl0000000000000U1@:551c992TnA3QF,0*6A
!AIVDO,2,2,9,A,@00000000000002,2*5D
!AIVDM,2,1,9,A,57Paewh00001<To7;?@plD5<Tl0000000000000U1@:551c992TnA3QF,0*68
!AIVDM,2,2,9,A,@00000000000002,2*5F
$IIRPM,E,1,0,10.5,A*7C
$IIRPM,E,2,0,10.5,A*7F
~$GPRMC,090921.635,A,3500.0,S,13830.0,E,5.0,15.0,220622,,,*09
$IIVHW,15.0,T,15.0,M,5.0,N,9.3,K*5A
$GPVTG,15.0,T,15.0,M,5.0,N,9.3,K*41
$IIHDT,15.0,T*16
$GPGLL,3500.0,S,13830.0,E,090921.635,A*25
$GPGGA,090921.635,3500.0,S,13830.0,E,1,4,1.5,2.0,M,,,,*2C
$GPGSA,A,3,8,11,15,22,,,,,,,,,1.5,1.5,1.5*0A
$GPZDA,090921.635,22,06,2022,-04,00*78
!AIVDO,1,1,,A,17PaewhP0jar0;1cv@h0UPNb0000,0*6E
!AIVDM,1,1,,A,17PaewhP0jar0;1cv@h0UPNb0000,0*6C
$WIMWD,285.0,T,285.0,M,11.0,N,5.7,M*68
$WIMWV,294.4,R,12.1,N,A*1A
$IIMTW,7.5,C*21
$SDDPT,8.0,0.3*5C
$SDDBT,26.2,f,8.0,M,4.4,F*38
$SDDBK,26.2,f,8.0,M,4.4,F*27
$SDDBS,26.2,f,8.0,M,4.4,F*3F
!AIVDO,2,1,9,A,57Paewh00001<To7;?@plD5<Tl0000000000000U1@:551c992TnA3QF,0*6A
!AIVDO,2,2,9,A,@00000000000002,2*5D
!AIVDM,2,1,9,A,57Paewh00001<To7;?@plD5<Tl0000000000000U1@:551c992TnA3QF,0*68
!AIVDM,2,2,9,A,@00000000000002,2*5F
$IIRPM,E,1,0,10.5,A*7C
$IIRPM,E,2,0,10.5,A*7F
~$GPRMC,090922.636,A,3500.0,S,13830.0,E,5.0,15.0,220622,,,*09
$IIVHW,15.0,T,15.0,M,5.0,N,9.3,K*5A
$GPVTG,15.0,T,15.0,M,5.0,N,9.3,K*41
$IIHDT,15.0,T*16
$GPGLL,3500.0,S,13830.0,E,090922.636,A*25
$GPGGA,090922.636,3500.0,S,13830.0,E,1,4,1.5,2.0,M,,,,*2C
$GPGSA,A,3,8,11,15,22,,,,,,,,,1.5,1.5,1.5*0A
$GPZDA,090922.636,22,06,2022,-04,00*78
!AIVDO,1,1,,A,17PaewhP0jar0;1cv@h0UPNd0000,0*68
!AIVDM,1,1,,A,17PaewhP0jar0;1cv@h0UPNd0000,0*6A
$WIMWD,285.0,T,285.0,M,11.0,N,5.7,M*68
$WIMWV,294.4,R,12.1,N,A*1A
$IIMTW,7.5,C*21
$SDDPT,8.0,0.3*5C
$SDDBT,26.2,f,8.0,M,4.4,F*38
$SDDBK,26.2,f,8.0,M,4.4,F*27
$SDDBS,26.2,f,8.0,M,4.4,F*3F
!AIVDO,2,1,9,A,57Paewh00001<To7;?@plD5<Tl0000000000000U1@:551c992TnA3QF,0*6A
!AIVDO,2,2,9,A,@00000000000002,2*5D
!AIVDM,2,1,9,A,57Paewh00001<To7;?@plD5<Tl0000000000000U1@:551c992TnA3QF,0*68
!AIVDM,2,2,9,A,@00000000000002,2*5F
$IIRPM,E,1,0,10.5,A*7C
$IIRPM,E,2,0,10.5,A*7F
~$GPRMC,090923.635,A,3500.0,S,13830.0,E,5.0,15.0,220622,,,*0B
$IIVHW,15.0,T,15.0,M,5.0,N,9.3,K*5A
$GPVTG,15.0,T,15.0,M,5.0,N,9.3,K*41
$IIHDT,15.0,T*16
$GPGLL,3500.0,S,13830.0,E,090923.635,A*27
$GPGGA,090923.635,3500.0,S,13830.0,E,1,4,1.5,2.0,M,,,,*2E
$GPGSA,A,3,8,11,15,22,,,,,,,,,1.5,1.5,1.5*0A
$GPZDA,090923.635,22,06,2022,-04,00*7A
!AIVDO,1,1,,A,17PaewhP0jar0;1cv@h0UPNf0000,0*6A
!AIVDM,1,1,,A,17PaewhP0jar0;1cv@h0UPNf0000,0*68
$WIMWD,285.0,T,285.0,M,11.0,N,5.7,M*68
$WIMWV,294.4,R,12.1,N,A*1A
$IIMTW,7.5,C*21
$SDDPT,8.0,0.3*5C
$SDDBT,26.2,f,8.0,M,4.4,F*38
$SDDBK,26.2,f,8.0,M,4.4,F*27
$SDDBS,26.2,f,8.0,M,4.4,F*3F
!AIVDO,2,1,9,A,57Paewh00001<To7;?@plD5<Tl0000000000000U1@:551c992TnA3QF,0*6A
!AIVDO,2,2,9,A,@00000000000002,2*5D
!AIVDM,2,1,9,A,57Paewh00001<To7;?@plD5<Tl0000000000000U1@:551c992TnA3QF,0*68
!AIVDM,2,2,9,A,@00000000000002,2*5F
$IIRPM,E,1,0,10.5,A*7C
$IIRPM,E,2,0,10.5,A*7F
~$GPRMC,090924.635,A,3500.0,S,13830.0,E,5.0,15.0,220622,,,*0C
$IIVHW,15.0,T,15.0,M,5.0,N,9.3,K*5A
$GPVTG,15.0,T,15.0,M,5.0,N,9.3,K*41
$IIHDT,15.0,T*16
$GPGLL,3500.0,S,13830.0,E,090924.635,A*20
$GPGGA,090924.635,3500.0,S,13830.0,E,1,4,1.5,2.0,M,,,,*29
$GPGSA,A,3,8,11,15,22,,,,,,,,,1.5,1.5,1.5*0A
$GPZDA,090924.635,22,06,2022,-04,00*7D
!AIVDO,1,1,,A,17PaewhP0jar0;1cv@h0UPNh0000,0*64
!AIVDM,1,1,,A,17PaewhP0jar0;1cv@h0UPNh0000,0*66
$WIMWD,285.0,T,285.0,M,11.0,N,5.7,M*68
$WIMWV,294.4,R,12.1,N,A*1A
$IIMTW,7.5,C*21
$SDDPT,8.0,0.3*5C
$SDDBT,26.2,f,8.0,M,4.4,F*38
$SDDBK,26.2,f,8.0,M,4.4,F*27
$SDDBS,26.2,f,8.0,M,4.4,F*3F
!AIVDO,2,1,9,A,57Paewh00001<To7;?@plD5<Tl0000000000000U1@:551c992TnA3QF,0*6A
!AIVDO,2,2,9,A,@00000000000002,2*5D
!AIVDM,2,1,9,A,57Paewh00001<To7;?@plD5<Tl0000000000000U1@:551c992TnA3QF,0*68
!AIVDM,2,2,9,A,@00000000000002,2*5F
$IIRPM,E,1,0,10.5,A*7C
$IIRPM,E,2,0,10.5,A*7F
~$GPRMC,090925.635,A,3500.0,S,13830.0,E,5.0,15.0,220622,,,*0D
$IIVHW,15.0,T,15.0,M,5.0,N,9.3,K*5A
$GPVTG,15.0,T,15.0,M,5.0,N,9.3,K*41
$IIHDT,15.0,T*16
$GPGLL,3500.0,S,13830.0,E,090925.635,A*21
$GPGGA,090925.635,3500.0,S,13830.0,E,1,4,1.5,2.0,M,,,,*28
$GPGSA,A,3,8,11,15,22,,,,,,,,,1.5,1.5,1.5*0A
$GPZDA,090925.635,22,06,2022,-04,00*7C
!AIVDO,1,1,,A,17PaewhP0jar0;1cv@h0UPNj0000,0*66
!AIVDM,1,1,,A,17PaewhP0jar0;1cv@h0UPNj0000,0*64
$WIMWD,285.0,T,285.0,M,11.0,N,5.7,M*68
$WIMWV,294.4,R,12.1,N,A*1A
$IIMTW,7.5,C*21
$SDDPT,8.0,0.3*5C
$SDDBT,26.2,f,8.0,M,4.4,F*38
$SDDBK,26.2,f,8.0,M,4.4,F*27
$SDDBS,26.2,f,8.0,M,4.4,F*3F
!AIVDO,2,1,9,A,57Paewh00001<To7;?@plD5<Tl0000000000000U1@:551c992TnA3QF,0*6A
!AIVDO,2,2,9,A,@00000000000002,2*5D
!AIVDM,2,1,9,A,57Paewh00001<To7;?@plD5<Tl0000000000000U1@:551c992TnA3QF,0*68
!AIVDM,2,2,9,A,@00000000000002,2*5F
$IIRPM,E,1,0,10.5,A*7C
$IIRPM,E,2,0,10.5,A*7F
~$GPRMC,090926.634,A,3500.0,S,13830.0,E,5.0,15.0,220622,,,*0F
$IIVHW,15.0,T,15.0,M,5.0,N,9.3,K*5A
$GPVTG,15.0,T,15.0,M,5.0,N,9.3,K*41
$IIHDT,15.0,T*16
$GPGLL,3500.0,S,13830.0,E,090926.634,A*23
$GPGGA,090926.634,3500.0,S,13830.0,E,1,4,1.5,2.0,M,,,,*2A
$GPGSA,A,3,8,11,15,22,,,,,,,,,1.5,1.5,1.5*0A
$GPZDA,090926.634,22,06,2022,-04,00*7E
!AIVDO,1,1,,A,17PaewhP0jar0;1cv@h0UPNl0000,0*60
!AIVDM,1,1,,A,17PaewhP0jar0;1cv@h0UPNl0000,0*62
$WIMWD,285.0,T,285.0,M,11.0,N,5.7,M*68
$WIMWV,294.4,R,12.1,N,A*1A
$IIMTW,7.5,C*21
$SDDPT,8.0,0.3*5C
$SDDBT,26.2,f,8.0,M,4.4,F*38
$SDDBK,26.2,f,8.0,M,4.4,F*27
$SDDBS,26.2,f,8.0,M,4.4,F*3F
!AIVDO,2,1,9,A,57Paewh00001<To7;?@plD5<Tl0000000000000U1@:551c992TnA3QF,0*6A
!AIVDO,2,2,9,A,@00000000000002,2*5D
!AIVDM,2,1,9,A,57Paewh00001<To7;?@plD5<Tl0000000000000U1@:551c992TnA3QF,0*68
!AIVDM,2,2,9,A,@00000000000002,2*5F
$IIRPM,E,1,0,10.5,A*7C
$IIRPM,E,2,0,10.5,A*7F
~$GPRMC,090927.635,A,3500.0,S,13830.0,E,5.0,15.0,220622,,,*0F
$IIVHW,15.0,T,15.0,M,5.0,N,9.3,K*5A
$GPVTG,15.0,T,15.0,M,5.0,N,9.3,K*41
$IIHDT,15.0,T*16
$GPGLL,3500.0,S,13830.0,E,090927.635,A*23
$GPGGA,090927.635,3500.0,S,13830.0,E,1,4,1.5,2.0,M,,,,*2A
$GPGSA,A,3,8,11,15,22,,,,,,,,,1.5,1.5,1.5*0A
$GPZDA,090927.635,22,06,2022,-04,00*7E
!AIVDO,1,1,,A,17PaewhP0jar0;1cv@h0UPNn0000,0*62
!AIVDM,1,1,,A,17PaewhP0jar0;1cv@h0UPNn0000,0*60
$WIMWD,285.0,T,285.0,M,11.0,N,5.7,M*68
$WIMWV,294.4,R,12.1,N,A*1A
$IIMTW,7.5,C*21
$SDDPT,8.0,0.3*5C
$SDDBT,26.2,f,8.0,M,4.4,F*38
$SDDBK,26.2,f,8.0,M,4.4,F*27
$SDDBS,26.2,f,8.0,M,4.4,F*3F
!AIVDO,2,1,9,A,57Paewh00001<To7;?@plD5<Tl0000000000000U1@:551c992TnA3QF,0*6A
!AIVDO,2,2,9,A,@00000000000002,2*5D
!AIVDM,2,1,9,A,57Paewh00001<To7;?@plD5<Tl0000000000000U1@:551c992TnA3QF,0*68
!AIVDM,2,2,9,A,@00000000000002,2*5F
$IIRPM,E,1,0,10.5,A*7C
$IIRPM,E,2,0,10.5,A*7F
~$GPRMC,090928.635,A,3500.0,S,13830.0,E,5.0,15.0,220622,,,*00
$IIVHW,15.0,T,15.0,M,5.0,N,9.3,K*5A
$GPVTG,15.0,T,15.0,M,5.0,N,9.3,K*41
$IIHDT,15.0,T*16
$GPGLL,3500.0,S,13830.0,E,090928.635,A*2C
$GPGGA,090928.635,3500.0,S,13830.0,E,1,4,1.5,2.0,M,,,,*25
$GPGSA,A,3,8,11,15,22,,,,,,,,,1.5,1.5,1.5*0A
$GPZDA,090928.635,22,06,2022,-04,00*71
!AIVDO,1,1,,A,17PaewhP0jar0;1cv@h0UPNp0000,0*7C
!AIVDM,1,1,,A,17PaewhP0jar0;1cv@h0UPNp0000,0*7E
$WIMWD,285.0,T,285.0,M,11.0,N,5.7,M*68
$WIMWV,294.4,R,12.1,N,A*1A
$IIMTW,7.5,C*21
$SDDPT,8.0,0.3*5C
$SDDBT,26.2,f,8.0,M,4.4,F*38
$SDDBK,26.2,f,8.0,M,4.4,F*27
$SDDBS,26.2,f,8.0,M,4.4,F*3F
!AIVDO,2,1,9,A,57Paewh00001<To7;?@plD5<Tl0000000000000U1@:551c992TnA3QF,0*6A
!AIVDO,2,2,9,A,@00000000000002,2*5D
!AIVDM,2,1,9,A,57Paewh00001<To7;?@plD5<Tl0000000000000U1@:551c992TnA3QF,0*68
!AIVDM,2,2,9,A,@00000000000002,2*5F
$IIRPM,E,1,0,10.5,A*7C
$IIRPM,E,2,0,10.5,A*7F
~$GPRMC,090929.636,A,3500.0,S,13830.0,E,5.0,15.0,220622,,,*02
$IIVHW,15.0,T,15.0,M,5.0,N,9.3,K*5A
$GPVTG,15.0,T,15.0,M,5.0,N,9.3,K*41
$IIHDT,15.0,T*16
$GPGLL,3500.0,S,13830.0,E,090929.636,A*2E
$GPGGA,090929.636,3500.0,S,13830.0,E,1,4,1.5,2.0,M,,,,*27
$GPGSA,A,3,8,11,15,22,,,,,,,,,1.5,1.5,1.5*0A
$GPZDA,090929.636,22,06,2022,-04,00*73
!AIVDO,1,1,,A,17PaewhP0jar0;1cv@h0UPNr0000,0*7E
!AIVDM,1,1,,A,17PaewhP0jar0;1cv@h0UPNr0000,0*7C
$WIMWD,285.0,T,285.0,M,11.0,N,5.7,M*68
$WIMWV,294.4,R,12.1,N,A*1A
$IIMTW,7.5,C*21
$SDDPT,8.0,0.3*5C
$SDDBT,26.2,f,8.0,M,4.4,F*38
$SDDBK,26.2,f,8.0,M,4.4,F*27
$SDDBS,26.2,f,8.0,M,4.4,F*3F
!AIVDO,2,1,9,A,57Paewh00001<To7;?@plD5<Tl0000000000000U1@:551c992TnA3QF,0*6A
!AIVDO,2,2,9,A,@00000000000002,2*5D
!AIVDM,2,1,9,A,57Paewh00001<To7;?@plD5<Tl0000000000000U1@:551c992TnA3QF,0*68
!AIVDM,2,2,9,A,@00000000000002,2*5F
$IIRPM,E,1,0,10.5,A*7C
$IIRPM,E,2,0,10.5,A*7F
~$GPRMC,090930.635,A,3500.0,S,13830.0,E,5.0,15.0,220622,,,*09
$IIVHW,15.0,T,15.0,M,5.0,N,9.3,K*5A
$GPVTG,15.0,T,15.0,M,5.0,N,9.3,K*41
$IIHDT,15.0,T*16
$GPGLL,3500.0,S,13830.0,E,090930.635,A*25
$GPGGA,090930.635,3500.0,S,13830.0,E,1,4,1.5,2.0,M,,,,*2C
$GPGSA,A,3,8,11,15,22,,,,,,,,,1.5,1.5,1.5*0A
$GPZDA,090930.635,22,06,2022,-04,00*78
!AIVDO,1,1,,A,17PaewhP0jar0;1cv@h0UPNt0000,0*78
!AIVDM,1,1,,A,17PaewhP0jar0;1cv@h0UPNt0000,0*7A
$WIMWD,285.0,T,285.0,M,11.0,N,5.7,M*68
$WIMWV,294.4,R,12.1,N,A*1A
$IIMTW,7.5,C*21
$SDDPT,8.0,0.3*5C
$SDDBT,26.2,f,8.0,M,4.4,F*38
$SDDBK,26.2,f,8.0,M,4.4,F*27
$SDDBS,26.2,f,8.0,M,4.4,F*3F
!AIVDO,2,1,9,A,57Paewh00001<To7;?@plD5<Tl0000000000000U1@:551c992TnA3QF,0*6A
!AIVDO,2,2,9,A,@00000000000002,2*5D
!AIVDM,2,1,9,A,57Paewh00001<To7;?@plD5<Tl0000000000000U1@:551c992TnA3QF,0*68
!AIVDM,2,2,9,A,@00000000000002,2*5F
$IIRPM,E,1,0,10.5,A*7C
$IIRPM,E,2,0,10.5,A*7F
~$GPRMC,090931.635,A,3500.0,S,13830.0,E,5.0,15.0,220622,,,*08
$IIVHW,15.0,T,15.0,M,5.0,N,9.3,K*5A
$GPVTG,15.0,T,15.0,M,5.0,N,9.3,K*41
$IIHDT,15.0,T*16
$GPGLL,3500.0,S,13830.0,E,090931.635,A*24
$GPGGA,090931.635,3500.0,S,13830.0,E,1,4,1.5,2.0,M,,,,*2D
$GPGSA,A,3,8,11,15,22,,,,,,,,,1.5,1.5,1.5*0A
$GPZDA,090931.635,22,06,2022,-04,00*79
!AIVDO,1,1,,A,17PaewhP0jar0;1cv@h0UPNv0000,0*7A
!AIVDM,1,1,,A,17PaewhP0jar0;1cv@h0UPNv0000,0*78
$WIMWD,285.0,T,285.0,M,11.0,N,5.7,M*68
$WIMWV,294.4,R,12.1,N,A*1A
$IIMTW,7.5,C*21
$SDDPT,8.0,0.3*5C
$SDDBT,26.2,f,8.0,M,4.4,F*38
$SDDBK,26.2,f,8.0,M,4.4,F*27
$SDDBS,26.2,f,8.0,M,4.4,F*3F
!AIVDO,2,1,9,A,57Paewh00001<To7;?@plD5<Tl0000000000000U1@:551c992TnA3QF,0*6A
!AIVDO,2,2,9,A,@00000000000002,2*5D
!AIVDM,2,1,9,A,57Paewh00001<To7;?@plD5<Tl0000000000000U1@:551c992TnA3QF,0*68
!AIVDM,2,2,9,A,@00000000000002,2*5F
$IIRPM,E,1,0,10.5,A*7C
$IIRPM,E,2,0,10.5,A*7F
~$GPRMC,090932.635,A,3500.0,S,13830.0,E,5.0,15.0,220622,,,*0B
$IIVHW,15.0,T,15.0,M,5.0,N,9.3,K*5A
$GPVTG,15.0,T,15.0,M,5.0,N,9.3,K*41
$IIHDT,15.0,T*16
$GPGLL,3500.0,S,13830.0,E,090932.635,A*27
$GPGGA,090932.635,3500.0,S,13830.0,E,1,4,1.5,2.0,M,,,,*2E
$GPGSA,A,3,8,11,15,22,,,,,,,,,1.5,1.5,1.5*0A
$GPZDA,090932.635,22,06,2022,-04,00*7A
!AIVDO,1,1,,A,17PaewhP0jar0;1cv@h0UPO00000,0*3D
!AIVDM,1,1,,A,17PaewhP0jar0;1cv@h0UPO00000,0*3F
$WIMWD,285.0,T,285.0,M,11.0,N,5.7,M*68
$WIMWV,294.4,R,12.1,N,A*1A
$IIMTW,7.5,C*21
$SDDPT,8.0,0.3*5C
$SDDBT,26.2,f,8.0,M,4.4,F*38
$SDDBK,26.2,f,8.0,M,4.4,F*27
$SDDBS,26.2,f,8.0,M,4.4,F*3F
!AIVDO,2,1,9,A,57Paewh00001<To7;?@plD5<Tl0000000000000U1@:551c992TnA3QF,0*6A
!AIVDO,2,2,9,A,@00000000000002,2*5D
!AIVDM,2,1,9,A,57Paewh00001<To7;?@plD5<Tl0000000000000U1@:551c992TnA3QF,0*68
!AIVDM,2,2,9,A,@00000000000002,2*5F
$IIRPM,E,1,0,10.5,A*7C
$IIRPM,E,2,0,10.5,A*7F
~$GPRMC,090933.635,A,3500.0,S,13830.0,E,5.0,15.0,220622,,,*0A
$IIVHW,15.0,T,15.0,M,5.0,N,9.3,K*5A
$GPVTG,15.0,T,15.0,M,5.0,N,9.3,K*41
$IIHDT,15.0,T*16
$GPGLL,3500.0,S,13830.0,E,090933.635,A*26
$GPGGA,090933.635,3500.0,S,13830.0,E,1,4,1.5,2.0,M,,,,*2F
$GPGSA,A,3,8,11,15,22,,,,,,,,,1.5,1.5,1.5*0A
$GPZDA,090933.635,22,06,2022,-04,00*7B
!AIVDO,1,1,,A,17PaewhP0jar0;1cv@h0UPO20000,0*3F
!AIVDM,1,1,,A,17PaewhP0jar0;1cv@h0UPO20000,0*3D
$WIMWD,285.0,T,285.0,M,11.0,N,5.7,M*68
$WIMWV,294.4,R,12.1,N,A*1A
$IIMTW,7.5,C*21
$SDDPT,8.0,0.3*5C
$SDDBT,26.2,f,8.0,M,4.4,F*38
$SDDBK,26.2,f,8.0,M,4.4,F*27
$SDDBS,26.2,f,8.0,M,4.4,F*3F
!AIVDO,2,1,9,A,57Paewh00001<To7;?@plD5<Tl0000000000000U1@:551c992TnA3QF,0*6A
!AIVDO,2,2,9,A,@00000000000002,2*5D
!AIVDM,2,1,9,A,57Paewh00001<To7;?@plD5<Tl0000000000000U1@:551c992TnA3QF,0*68
!AIVDM,2,2,9,A,@00000000000002,2*5F
$IIRPM,E,1,0,10.5,A*7C
$IIRPM,E,2,0,10.5,A*7F
~$GPRMC,090934.636,A,3500.0,S,13830.0,E,5.0,15.0,220622,,,*0E
$IIVHW,15.0,T,15.0,M,5.0,N,9.3,K*5A
$GPVTG,15.0,T,15.0,M,5.0,N,9.3,K*41
$IIHDT,15.0,T*16
$GPGLL,3500.0,S,13830.0,E,090934.636,A*22
$GPGGA,090934.636,3500.0,S,13830.0,E,1,4,1.5,2.0,M,,,,*2B
$GPGSA,A,3,8,11,15,22,,,,,,,,,1.5,1.5,1.5*0A
$GPZDA,090934.636,22,06,2022,-04,00*7F
!AIVDO,1,1,,A,17PaewhP0jar0;1cv@h0UPO40000,0*39
!AIVDM,1,1,,A,17PaewhP0jar0;1cv@h0UPO40000,0*3B
$WIMWD,285.0,T,285.0,M,11.0,N,5.7,M*68
$WIMWV,294.4,R,12.1,N,A*1A
$IIMTW,7.5,C*21
$SDDPT,8.0,0.3*5C
$SDDBT,26.2,f,8.0,M,4.4,F*38
$SDDBK,26.2,f,8.0,M,4.4,F*27
$SDDBS,26.2,f,8.0,M,4.4,F*3F
!AIVDO,2,1,9,A,57Paewh00001<To7;?@plD5<Tl0000000000000U1@:551c992TnA3QF,0*6A
!AIVDO,2,2,9,A,@00000000000002,2*5D
!AIVDM,2,1,9,A,57Paewh00001<To7;?@plD5<Tl0000000000000U1@:551c992TnA3QF,0*68
!AIVDM,2,2,9,A,@00000000000002,2*5F
$IIRPM,E,1,0,10.5,A*7C
$IIRPM,E,2,0,10.5,A*7F
~$GPRMC,090935.641,A,3500.0,S,13830.0,E,5.0,15.0,220622,,,*0F
$IIVHW,15.0,T,15.0,M,5.0,N,9.3,K*5A
$GPVTG,15.0,T,15.0,M,5.0,N,9.3,K*41
$IIHDT,15.0,T*16
$GPGLL,3500.0,S,13830.0,E,090935.641,A*23
$GPGGA,090935.641,3500.0,S,13830.0,E,1,4,1.5,2.0,M,,,,*2A
$GPGSA,A,3,8,11,15,22,,,,,,,,,1.5,1.5,1.5*0A
$GPZDA,090935.641,22,06,2022,-04,00*7E
!AIVDO,1,1,,A,17PaewhP0jar0;1cv@h0UPO60000,0*3B
!AIVDM,1,1,,A,17PaewhP0jar0;1cv@h0UPO60000,0*39
$WIMWD,285.0,T,285.0,M,11.0,N,5.7,M*68
$WIMWV,294.4,R,12.1,N,A*1A
$IIMTW,7.5,C*21
$SDDPT,8.0,0.3*5C
$SDDBT,26.2,f,8.0,M,4.4,F*38
$SDDBK,26.2,f,8.0,M,4.4,F*27
$SDDBS,26.2,f,8.0,M,4.4,F*3F
!AIVDO,2,1,9,A,57Paewh00001<To7;?@plD5<Tl0000000000000U1@:551c992TnA3QF,0*6A
!AIVDO,2,2,9,A,@00000000000002,2*5D
!AIVDM,2,1,9,A,57Paewh00001<To7;?@plD5<Tl0000000000000U1@:551c992TnA3QF,0*68
!AIVDM,2,2,9,A,@00000000000002,2*5F
$IIRPM,E,1,0,10.5,A*7C
$IIRPM,E,2,0,10.5,A*7F
~$GPRMC,090936.724,A,3500.0,S,13830.0,E,5.0,15.0,220622,,,*0E
$IIVHW,15.0,T,15.0,M,5.0,N,9.3,K*5A
$GPVTG,15.0,T,15.0,M,5.0,N,9.3,K*41
$IIHDT,15.0,T*16
$GPGLL,3500.0,S,13830.0,E,090936.724,A*22
$GPGGA,090936.724,3500.0,S,13830.0,E,1,4,1.5,2.0,M,,,,*2B
$GPGSA,A,3,8,11,15,22,,,,,,,,,1.5,1.5,1.5*0A
$GPZDA,090936.724,22,06,2022,-04,00*7F
!AIVDO,1,1,,A,17PaewhP0jar0;1cv@h0UPO80000,0*35
!AIVDM,1,1,,A,17PaewhP0jar0;1cv@h0UPO80000,0*37
$WIMWD,285.0,T,285.0,M,11.0,N,5.7,M*68
$WIMWV,294.4,R,12.1,N,A*1A
$IIMTW,7.5,C*21
$SDDPT,8.0,0.3*5C
$SDDBT,26.2,f,8.0,M,4.4,F*38
$SDDBK,26.2,f,8.0,M,4.4,F*27
$SDDBS,26.2,f,8.0,M,4.4,F*3F
!AIVDO,2,1,9,A,57Paewh00001<To7;?@plD5<Tl0000000000000U1@:551c992TnA3QF,0*6A
!AIVDO,2,2,9,A,@00000000000002,2*5D
!AIVDM,2,1,9,A,57Paewh00001<To7;?@plD5<Tl0000000000000U1@:551c992TnA3QF,0*68
!AIVDM,2,2,9,A,@00000000000002,2*5F
$IIRPM,E,1,0,10.5,A*7C
$IIRPM,E,2,0,10.5,A*7F
~$GPRMC,090937.637,A,3500.0,S,13830.0,E,5.0,15.0,220622,,,*0C
$IIVHW,15.0,T,15.0,M,5.0,N,9.3,K*5A
$GPVTG,15.0,T,15.0,M,5.0,N,9.3,K*41
$IIHDT,15.0,T*16
$GPGLL,3500.0,S,13830.0,E,090937.637,A*20
$GPGGA,090937.637,3500.0,S,13830.0,E,1,4,1.5,2.0,M,,,,*29
$GPGSA,A,3,8,11,15,22,,,,,,,,,1.5,1.5,1.5*0A
$GPZDA,090937.637,22,06,2022,-04,00*7D
!AIVDO,1,1,,A,17PaewhP0jar0;1cv@h0UPO:0000,0*37
!AIVDM,1,1,,A,17PaewhP0jar0;1cv@h0UPO:0000,0*35
$WIMWD,285.0,T,285.0,M,11.0,N,5.7,M*68
$WIMWV,294.4,R,12.1,N,A*1A
$IIMTW,7.5,C*21
$SDDPT,8.0,0.3*5C
$SDDBT,26.2,f,8.0,M,4.4,F*38
$SDDBK,26.2,f,8.0,M,4.4,F*27
$SDDBS,26.2,f,8.0,M,4.4,F*3F
!AIVDO,2,1,9,A,57Paewh00001<To7;?@plD5<Tl0000000000000U1@:551c992TnA3QF,0*6A
!AIVDO,2,2,9,A,@00000000000002,2*5D
!AIVDM,2,1,9,A,57Paewh00001<To7;?@plD5<Tl0000000000000U1@:551c992TnA3QF,0*68
!AIVDM,2,2,9,A,@00000000000002,2*5F
$IIRPM,E,1,0,10.5,A*7C
$IIRPM,E,2,0,10.5,A*7F
~$GPRMC,090938.665,A,3500.0,S,13830.0,E,5.0,15.0,220622,,,*04
$IIVHW,15.0,T,15.0,M,5.0,N,9.3,K*5A
$GPVTG,15.0,T,15.0,M,5.0,N,9.3,K*41
$IIHDT,15.0,T*16
$GPGLL,3500.0,S,13830.0,E,090938.665,A*28
$GPGGA,090938.665,3500.0,S,13830.0,E,1,4,1.5,2.0,M,,,,*21
$GPGSA,A,3,8,11,15,22,,,,,,,,,1.5,1.5,1.5*0A
$GPZDA,090938.665,22,06,2022,-04,00*75
!AIVDO,1,1,,A,17PaewhP0jar0;1cv@h0UPO<0000,0*31
!AIVDM,1,1,,A,17PaewhP0jar0;1cv@h0UPO<0000,0*33
$WIMWD,285.0,T,285.0,M,11.0,N,5.7,M*68
$WIMWV,294.4,R,12.1,N,A*1A
$IIMTW,7.5,C*21
$SDDPT,8.0,0.3*5C
$SDDBT,26.2,f,8.0,M,4.4,F*38
$SDDBK,26.2,f,8.0,M,4.4,F*27
$SDDBS,26.2,f,8.0,M,4.4,F*3F
!AIVDO,2,1,9,A,57Paewh00001<To7;?@plD5<Tl0000000000000U1@:551c992TnA3QF,0*6A
!AIVDO,2,2,9,A,@00000000000002,2*5D
!AIVDM,2,1,9,A,57Paewh00001<To7;?@plD5<Tl0000000000000U1@:551c992TnA3QF,0*68
!AIVDM,2,2,9,A,@00000000000002,2*5F
$IIRPM,E,1,0,10.5,A*7C
$IIRPM,E,2,0,10.5,A*7F
~$GPRMC,090939.657,A,3500.0,S,13830.0,E,5.0,15.0,220622,,,*04
$IIVHW,15.0,T,15.0,M,5.0,N,9.3,K*5A
$GPVTG,15.0,T,15.0,M,5.0,N,9.3,K*41
$IIHDT,15.0,T*16
$GPGLL,3500.0,S,13830.0,E,090939.657,A*28
$GPGGA,090939.657,3500.0,S,13830.0,E,1,4,1.5,2.0,M,,,,*21
$GPGSA,A,3,8,11,15,22,,,,,,,,,1.5,1.5,1.5*0A
$GPZDA,090939.657,22,06,2022,-04,00*75
!AIVDO,1,1,,A,17PaewhP0jar0;1cv@h0UPO>0000,0*33
!AIVDM,1,1,,A,17PaewhP0jar0;1cv@h0UPO>0000,0*31
$WIMWD,285.0,T,285.0,M,11.0,N,5.7,M*68
$WIMWV,294.4,R,12.1,N,A*1A
$IIMTW,7.5,C*21
$SDDPT,8.0,0.3*5C
$SDDBT,26.2,f,8.0,M,4.4,F*38
$SDDBK,26.2,f,8.0,M,4.4,F*27
$SDDBS,26.2,f,8.0,M,4.4,F*3F
!AIVDO,2,1,9,A,57Paewh00001<To7;?@plD5<Tl0000000000000U1@:551c992TnA3QF,0*6A
!AIVDO,2,2,9,A,@00000000000002,2*5D
!AIVDM,2,1,9,A,57Paewh00001<To7;?@plD5<Tl0000000000000U1@:551c992TnA3QF,0*68
!AIVDM,2,2,9,A,@00000000000002,2*5F
$IIRPM,E,1,0,10.5,A*7C
$IIRPM,E,2,0,10.5,A*7F
~$GPRMC,090940.635,A,3500.0,S,13830.0,E,5.0,15.0,220622,,,*0E
$IIVHW,15.0,T,15.0,M,5.0,N,9.3,K*5A
$GPVTG,15.0,T,15.0,M,5.0,N,9.3,K*41
$IIHDT,15.0,T*16
$GPGLL,3500.0,S,13830.0,E,090940.635,A*22
$GPGGA,090940.635,3500.0,S,13830.0,E,1,4,1.5,2.0,M,,,,*2B
$GPGSA,A,3,8,11,15,22,,,,,,,,,1.5,1.5,1.5*0A
$GPZDA,090940.635,22,06,2022,-04,00*7F
!AIVDO,1,1,,A,17PaewhP0jar0;1cv@h0UPO@0000,0*4D
!AIVDM,1,1,,A,17PaewhP0jar0;1cv@h0UPO@0000,0*4F
$WIMWD,285.0,T,285.0,M,11.0,N,5.7,M*68
$WIMWV,294.4,R,12.1,N,A*1A
$IIMTW,7.5,C*21
$SDDPT,8.0,0.3*5C
$SDDBT,26.2,f,8.0,M,4.4,F*38
$SDDBK,26.2,f,8.0,M,4.4,F*27
$SDDBS,26.2,f,8.0,M,4.4,F*3F
!AIVDO,2,1,9,A,57Paewh00001<To7;?@plD5<Tl0000000000000U1@:551c992TnA3QF,0*6A
!AIVDO,2,2,9,A,@00000000000002,2*5D
!AIVDM,2,1,9,A,57Paewh00001<To7;?@plD5<Tl0000000000000U1@:551c992TnA3QF,0*68
!AIVDM,2,2,9,A,@00000000000002,2*5F
$IIRPM,E,1,0,10.5,A*7C
$IIRPM,E,2,0,10.5,A*7F
~$GPRMC,090941.639,A,3500.0,S,13830.0,E,5.0,15.0,220622,,,*03
$IIVHW,15.0,T,15.0,M,5.0,N,9.3,K*5A
$GPVTG,15.0,T,15.0,M,5.0,N,9.3,K*41
$IIHDT,15.0,T*16
$GPGLL,3500.0,S,13830.0,E,090941.639,A*2F
$GPGGA,090941.639,3500.0,S,13830.0,E,1,4,1.5,2.0,M,,,,*26
$GPGSA,A,3,8,11,15,22,,,,,,,,,1.5,1.5,1.5*0A
$GPZDA,090941.639,22,06,2022,-04,00*72
!AIVDO,1,1,,A,17PaewhP0jar0;1cv@h0UPOB0000,0*4F
!AIVDM,1,1,,A,17PaewhP0jar0;1cv@h0UPOB0000,0*4D
$WIMWD,285.0,T,285.0,M,11.0,N,5.7,M*68
$WIMWV,294.4,R,12.1,N,A*1A
$IIMTW,7.5,C*21
$SDDPT,8.0,0.3*5C
$SDDBT,26.2,f,8.0,M,4.4,F*38
$SDDBK,26.2,f,8.0,M,4.4,F*27
$SDDBS,26.2,f,8.0,M,4.4,F*3F
!AIVDO,2,1,9,A,57Paewh00001<To7;?@plD5<Tl0000000000000U1@:551c992TnA3QF,0*6A
!AIVDO,2,2,9,A,@00000000000002,2*5D
!AIVDM,2,1,9,A,57Paewh00001<To7;?@plD5<Tl0000000000000U1@:551c992TnA3QF,0*68
!AIVDM,2,2,9,A,@00000000000002,2*5F
$IIRPM,E,1,0,10.5,A*7C
$IIRPM,E,2,0,10.5,A*7F
~$GPRMC,090942.635,A,3500.0,S,13830.0,E,5.0,15.0,220622,,,*0C
$IIVHW,15.0,T,15.0,M,5.0,N,9.3,K*5A
$GPVTG,15.0,T,15.0,M,5.0,N,9.3,K*41
$IIHDT,15.0,T*16
$GPGLL,3500.0,S,13830.0,E,090942.635,A*20
$GPGGA,090942.635,3500.0,S,13830.0,E,1,4,1.5,2.0,M,,,,*29
$GPGSA,A,3,8,11,15,22,,,,,,,,,1.5,1.5,1.5*0A
$GPZDA,090942.635,22,06,2022,-04,00*7D
!AIVDO,1,1,,A,17PaewhP0jar0;1cv@h0UPOD0000,0*49
!AIVDM,1,1,,A,17PaewhP0jar0;1cv@h0UPOD0000,0*4B
$WIMWD,285.0,T,285.0,M,11.0,N,5.7,M*68
$WIMWV,294.4,R,12.1,N,A*1A
$IIMTW,7.5,C*21
$SDDPT,8.0,0.3*5C
$SDDBT,26.2,f,8.0,M,4.4,F*38
$SDDBK,26.2,f,8.0,M,4.4,F*27
$SDDBS,26.2,f,8.0,M,4.4,F*3F
!AIVDO,2,1,9,A,57Paewh00001<To7;?@plD5<Tl0000000000000U1@:551c992TnA3QF,0*6A
!AIVDO,2,2,9,A,@00000000000002,2*5D
!AIVDM,2,1,9,A,57Paewh00001<To7;?@plD5<Tl0000000000000U1@:551c992TnA3QF,0*68
!AIVDM,2,2,9,A,@00000000000002,2*5F
$IIRPM,E,1,0,10.5,A*7C
$IIRPM,E,2,0,10.5,A*7F
~$GPRMC,090943.635,A,3500.0,S,13830.0,E,5.0,15.0,220622,,,*0D
$IIVHW,15.0,T,15.0,M,5.0,N,9.3,K*5A
$GPVTG,15.0,T,15.0,M,5.0,N,9.3,K*41
$IIHDT,15.0,T*16
$GPGLL,3500.0,S,13830.0,E,090943.635,A*21
$GPGGA,090943.635,3500.0,S,13830.0,E,1,4,1.5,2.0,M,,,,*28
$GPGSA,A,3,8,11,15,22,,,,,,,,,1.5,1.5,1.5*0A
$GPZDA,090943.635,22,06,2022,-04,00*7C
!AIVDO,1,1,,A,17PaewhP0jar0;1cv@h0UPOF0000,0*4B
!AIVDM,1,1,,A,17PaewhP0jar0;1cv@h0UPOF0000,0*49
$WIMWD,285.0,T,285.0,M,11.0,N,5.7,M*68
$WIMWV,294.4,R,12.1,N,A*1A
$IIMTW,7.5,C*21
$SDDPT,8.0,0.3*5C
$SDDBT,26.2,f,8.0,M,4.4,F*38
$SDDBK,26.2,f,8.0,M,4.4,F*27
$SDDBS,26.2,f,8.0,M,4.4,F*3F
!AIVDO,2,1,9,A,57Paewh00001<To7;?@plD5<Tl0000000000000U1@:551c992TnA3QF,0*6A
!AIVDO,2,2,9,A,@00000000000002,2*5D
!AIVDM,2,1,9,A,57Paewh00001<To7;?@plD5<Tl0000000000000U1@:551c992TnA3QF,0*68
!AIVDM,2,2,9,A,@00000000000002,2*5F
$IIRPM,E,1,0,10.5,A*7C
$IIRPM,E,2,0,10.5,A*7F
~$GPRMC,090944.638,A,3500.0,S,13830.0,E,5.0,15.0,220622,,,*07
$IIVHW,15.0,T,15.0,M,5.0,N,9.3,K*5A
$GPVTG,15.0,T,15.0,M,5.0,N,9.3,K*41
$IIHDT,15.0,T*16
$GPGLL,3500.0,S,13830.0,E,090944.638,A*2B
$GPGGA,090944.638,3500.0,S,13830.0,E,1,4,1.5,2.0,M,,,,*22
$GPGSA,A,3,8,11,15,22,,,,,,,,,1.5,1.5,1.5*0A
$GPZDA,090944.638,22,06,2022,-04,00*76
!AIVDO,1,1,,A,17PaewhP0jar0;1cv@h0UPOH0000,0*45
!AIVDM,1,1,,A,17PaewhP0jar0;1cv@h0UPOH0000,0*47
$WIMWD,285.0,T,285.0,M,11.0,N,5.7,M*68
$WIMWV,294.4,R,12.1,N,A*1A
$IIMTW,7.5,C*21
$SDDPT,8.0,0.3*5C
$SDDBT,26.2,f,8.0,M,4.4,F*38
$SDDBK,26.2,f,8.0,M,4.4,F*27
$SDDBS,26.2,f,8.0,M,4.4,F*3F
!AIVDO,2,1,9,A,57Paewh00001<To7;?@plD5<Tl0000000000000U1@:551c992TnA3QF,0*6A
!AIVDO,2,2,9,A,@00000000000002,2*5D
!AIVDM,2,1,9,A,57Paewh00001<To7;?@plD5<Tl0000000000000U1@:551c992TnA3QF,0*68
!AIVDM,2,2,9,A,@00000000000002,2*5F
$IIRPM,E,1,600.0,10.5,A*64
$IIRPM,E,2,0,10.5,A*7F
~$GPRMC,090945.635,A,3500.0,S,13830.0,E,5.0,15.0,220622,,,*0B
$IIVHW,15.0,T,15.0,M,5.0,N,9.3,K*5A
$GPVTG,15.0,T,15.0,M,5.0,N,9.3,K*41
$IIHDT,15.0,T*16
$GPGLL,3500.0,S,13830.0,E,090945.635,A*27
$GPGGA,090945.635,3500.0,S,13830.0,E,1,4,1.5,2.0,M,,,,*2E
$GPGSA,A,3,8,11,15,22,,,,,,,,,1.5,1.5,1.5*0A
$GPZDA,090945.635,22,06,2022,-04,00*7A
!AIVDO,1,1,,A,17PaewhP0jar0;1cv@h0UPOJ0000,0*47
!AIVDM,1,1,,A,17PaewhP0jar0;1cv@h0UPOJ0000,0*45
$WIMWD,285.0,T,285.0,M,11.0,N,5.7,M*68
$WIMWV,294.4,R,12.1,N,A*1A
$IIMTW,7.5,C*21
$SDDPT,8.0,0.3*5C
$SDDBT,26.2,f,8.0,M,4.4,F*38
$SDDBK,26.2,f,8.0,M,4.4,F*27
$SDDBS,26.2,f,8.0,M,4.4,F*3F
!AIVDO,2,1,9,A,57Paewh00001<To7;?@plD5<Tl0000000000000U1@:551c992TnA3QF,0*6A
!AIVDO,2,2,9,A,@00000000000002,2*5D
!AIVDM,2,1,9,A,57Paewh00001<To7;?@plD5<Tl0000000000000U1@:551c992TnA3QF,0*68
!AIVDM,2,2,9,A,@00000000000002,2*5F
$IIRPM,E,1,600.0,10.5,A*64
$IIRPM,E,2,0,10.5,A*7F
~$GPRMC,090946.635,A,3500.0,S,13830.0,E,5.0,15.0,220622,,,*08
$IIVHW,15.0,T,15.0,M,5.0,N,9.3,K*5A
$GPVTG,15.0,T,15.0,M,5.0,N,9.3,K*41
$IIHDT,15.0,T*16
$GPGLL,3500.0,S,13830.0,E,090946.635,A*24
$GPGGA,090946.635,3500.0,S,13830.0,E,1,4,1.5,2.0,M,,,,*2D
$GPGSA,A,3,8,11,15,22,,,,,,,,,1.5,1.5,1.5*0A
$GPZDA,090946.635,22,06,2022,-04,00*79
!AIVDO,1,1,,A,17PaewhP0jar0;1cv@h0UPOL0000,0*41
!AIVDM,1,1,,A,17PaewhP0jar0;1cv@h0UPOL0000,0*43
$WIMWD,285.0,T,285.0,M,11.0,N,5.7,M*68
$WIMWV,294.4,R,12.1,N,A*1A
$IIMTW,7.5,C*21
$SDDPT,8.0,0.3*5C
$SDDBT,26.2,f,8.0,M,4.4,F*38
$SDDBK,26.2,f,8.0,M,4.4,F*27
$SDDBS,26.2,f,8.0,M,4.4,F*3F
!AIVDO,2,1,9,A,57Paewh00001<To7;?@plD5<Tl0000000000000U1@:551c992TnA3QF,0*6A
!AIVDO,2,2,9,A,@00000000000002,2*5D
!AIVDM,2,1,9,A,57Paewh00001<To7;?@plD5<Tl0000000000000U1@:551c992TnA3QF,0*68
!AIVDM,2,2,9,A,@00000000000002,2*5F
$IIRPM,E,1,600.0,10.5,A*64
$IIRPM,E,2,0,10.5,A*7F
~$GPRMC,090947.637,A,3500.0,S,13830.0,E,5.0,15.0,220622,,,*0B
$IIVHW,15.0,T,15.0,M,5.0,N,9.3,K*5A
$GPVTG,15.0,T,15.0,M,5.0,N,9.3,K*41
$IIHDT,15.0,T*16
$GPGLL,3500.0,S,13830.0,E,090947.637,A*27
$GPGGA,090947.637,3500.0,S,13830.0,E,1,4,1.5,2.0,M,,,,*2E
$GPGSA,A,3,8,11,15,22,,,,,,,,,1.5,1.5,1.5*0A
$GPZDA,090947.637,22,06,2022,-04,00*7A
!AIVDO,1,1,,A,17PaewhP0jar0;1cv@h0UPON0000,0*43
!AIVDM,1,1,,A,17PaewhP0jar0;1cv@h0UPON0000,0*41
$WIMWD,285.0,T,285.0,M,11.0,N,5.7,M*68
$WIMWV,294.4,R,12.1,N,A*1A
$IIMTW,7.5,C*21
$SDDPT,8.0,0.3*5C
$SDDBT,26.2,f,8.0,M,4.4,F*38
$SDDBK,26.2,f,8.0,M,4.4,F*27
$SDDBS,26.2,f,8.0,M,4.4,F*3F
!AIVDO,2,1,9,A,57Paewh00001<To7;?@plD5<Tl0000000000000U1@:551c992TnA3QF,0*6A
!AIVDO,2,2,9,A,@00000000000002,2*5D
!AIVDM,2,1,9,A,57Paewh00001<To7;?@plD5<Tl0000000000000U1@:551c992TnA3QF,0*68
!AIVDM,2,2,9,A,@00000000000002,2*5F
$IIRPM,E,1,600.0,10.5,A*64
$IIRPM,E,2,600.0,10.5,A*67
~$GPRMC,090948.634,A,3500.0,S,13830.0,E,5.0,15.0,220622,,,*07
$IIVHW,15.0,T,15.0,M,5.0,N,9.3,K*5A
$GPVTG,15.0,T,15.0,M,5.0,N,9.3,K*41
$IIHDT,15.0,T*16
$GPGLL,3500.0,S,13830.0,E,090948.634,A*2B
$GPGGA,090948.634,3500.0,S,13830.0,E,1,4,1.5,2.0,M,,,,*22
$GPGSA,A,3,8,11,15,22,,,,,,,,,1.5,1.5,1.5*0A
$GPZDA,090948.634,22,06,2022,-04,00*76
!AIVDO,1,1,,A,17PaewhP0jar0;1cv@h0UPOP0000,0*5D
!AIVDM,1,1,,A,17PaewhP0jar0;1cv@h0UPOP0000,0*5F
$WIMWD,285.0,T,285.0,M,11.0,N,5.7,M*68
$WIMWV,294.4,R,12.1,N,A*1A
$IIMTW,7.5,C*21
$SDDPT,8.0,0.3*5C
$SDDBT,26.2,f,8.0,M,4.4,F*38
$SDDBK,26.2,f,8.0,M,4.4,F*27
$SDDBS,26.2,f,8.0,M,4.4,F*3F
!AIVDO,2,1,9,A,57Paewh00001<To7;?@plD5<Tl0000000000000U1@:551c992TnA3QF,0*6A
!AIVDO,2,2,9,A,@00000000000002,2*5D
!AIVDM,2,1,9,A,57Paewh00001<To7;?@plD5<Tl0000000000000U1@:551c992TnA3QF,0*68
!AIVDM,2,2,9,A,@00000000000002,2*5F
$IIRPM,E,1,600.0,10.5,A*64
$IIRPM,E,2,600.0,10.5,A*67
~$GPRMC,090949.635,A,3500.0,S,13830.0,E,5.0,15.0,220622,,,*07
$IIVHW,15.0,T,15.0,M,5.0,N,9.3,K*5A
$GPVTG,15.0,T,15.0,M,5.0,N,9.3,K*41
$IIHDT,15.0,T*16
$GPGLL,3500.0,S,13830.0,E,090949.635,A*2B
$GPGGA,090949.635,3500.0,S,13830.0,E,1,4,1.5,2.0,M,,,,*22
$GPGSA,A,3,8,11,15,22,,,,,,,,,1.5,1.5,1.5*0A
$GPZDA,090949.635,22,06,2022,-04,00*76
!AIVDO,1,1,,A,17PaewhP0jar0;1cv@h0UPOR0000,0*5F
!AIVDM,1,1,,A,17PaewhP0jar0;1cv@h0UPOR0000,0*5D
$WIMWD,285.0,T,285.0,M,11.0,N,5.7,M*68
$WIMWV,294.4,R,12.1,N,A*1A
$IIMTW,7.5,C*21
$SDDPT,8.0,0.3*5C
$SDDBT,26.2,f,8.0,M,4.4,F*38
$SDDBK,26.2,f,8.0,M,4.4,F*27
$SDDBS,26.2,f,8.0,M,4.4,F*3F
!AIVDO,2,1,9,A,57Paewh00001<To7;?@plD5<Tl0000000000000U1@:551c992TnA3QF,0*6A
!AIVDO,2,2,9,A,@00000000000002,2*5D
!AIVDM,2,1,9,A,57Paewh00001<To7;?@plD5<Tl0000000000000U1@:551c992TnA3QF,0*68
!AIVDM,2,2,9,A,@00000000000002,2*5F
$IIRPM,E,1,600.0,10.5,A*64
$IIRPM,E,2,600.0,10.5,A*67
~$GPRMC,090950.635,A,3500.0,S,13830.0,E,5.0,15.0,220622,,,*0F
$IIVHW,15.0,T,15.0,M,5.0,N,9.3,K*5A
$GPVTG,15.0,T,15.0,M,5.0,N,9.3,K*41
$IIHDT,15.0,T*16
$GPGLL,3500.0,S,13830.0,E,090950.635,A*23
$GPGGA,090950.635,3500.0,S,13830.0,E,1,4,1.5,2.0,M,,,,*2A
$GPGSA,A,3,8,11,15,22,,,,,,,,,1.5,1.5,1.5*0A
$GPZDA,090950.635,22,06,2022,-04,00*7E
!AIVDO,1,1,,A,17PaewhP0jar0;1cv@h0UPOT0000,0*59
!AIVDM,1,1,,A,17PaewhP0jar0;1cv@h0UPOT0000,0*5B
$WIMWD,285.0,T,285.0,M,11.0,N,5.7,M*68
$WIMWV,294.4,R,12.1,N,A*1A
$IIMTW,7.5,C*21
$SDDPT,8.0,0.3*5C
$SDDBT,26.2,f,8.0,M,4.4,F*38
$SDDBK,26.2,f,8.0,M,4.4,F*27
$SDDBS,26.2,f,8.0,M,4.4,F*3F
!AIVDO,2,1,9,A,57Paewh00001<To7;?@plD5<Tl0000000000000U1@:551c992TnA3QF,0*6A
!AIVDO,2,2,9,A,@00000000000002,2*5D
!AIVDM,2,1,9,A,57Paewh00001<To7;?@plD5<Tl0000000000000U1@:551c992TnA3QF,0*68
!AIVDM,2,2,9,A,@00000000000002,2*5F
$IIRPM,E,1,600.0,10.5,A*64
$IIRPM,E,2,600.0,10.5,A*67
~$GPRMC,090951.635,A,3500.0,S,13830.0,E,5.0,15.0,220622,,,*0E
$IIVHW,15.0,T,15.0,M,5.0,N,9.3,K*5A
$GPVTG,15.0,T,15.0,M,5.0,N,9.3,K*41
$IIHDT,15.0,T*16
$GPGLL,3500.0,S,13830.0,E,090951.635,A*22
$GPGGA,090951.635,3500.0,S,13830.0,E,1,4,1.5,2.0,M,,,,*2B
$GPGSA,A,3,8,11,15,22,,,,,,,,,1.5,1.5,1.5*0A
$GPZDA,090951.635,22,06,2022,-04,00*7F
!AIVDO,1,1,,A,17PaewhP0jar0;1cv@h0UPOV0000,0*5B
!AIVDM,1,1,,A,17PaewhP0jar0;1cv@h0UPOV0000,0*59
$WIMWD,285.0,T,285.0,M,11.0,N,5.7,M*68
$WIMWV,294.4,R,12.1,N,A*1A
$IIMTW,7.5,C*21
$SDDPT,8.0,0.3*5C
$SDDBT,26.2,f,8.0,M,4.4,F*38
$SDDBK,26.2,f,8.0,M,4.4,F*27
$SDDBS,26.2,f,8.0,M,4.4,F*3F
!AIVDO,2,1,9,A,57Paewh00001<To7;?@plD5<Tl0000000000000U1@:551c992TnA3QF,0*6A
!AIVDO,2,2,9,A,@00000000000002,2*5D
!AIVDM,2,1,9,A,57Paewh00001<To7;?@plD5<Tl0000000000000U1@:551c992TnA3QF,0*68
!AIVDM,2,2,9,A,@00000000000002,2*5F
$IIRPM,E,1,600.0,10.5,A*64
$IIRPM,E,2,600.0,10.5,A*67
~$GPRMC,090952.635,A,3500.0,S,13830.0,E,5.0,15.0,220622,,,*0D
$IIVHW,15.0,T,15.0,M,5.0,N,9.3,K*5A
$GPVTG,15.0,T,15.0,M,5.0,N,9.3,K*41
$IIHDT,15.0,T*16
$GPGLL,3500.0,S,13830.0,E,090952.635,A*21
$GPGGA,090952.635,3500.0,S,13830.0,E,1,4,1.5,2.0,M,,,,*28
$GPGSA,A,3,8,11,15,22,,,,,,,,,1.5,1.5,1.5*0A
$GPZDA,090952.635,22,06,2022,-04,00*7C
!AIVDO,1,1,,A,17PaewhP0jar0;1cv@h0UPO`0000,0*6D
!AIVDM,1,1,,A,17PaewhP0jar0;1cv@h0UPO`0000,0*6F
$WIMWD,285.0,T,285.0,M,11.0,N,5.7,M*68
$WIMWV,294.4,R,12.1,N,A*1A
$IIMTW,7.5,C*21
$SDDPT,8.0,0.3*5C
$SDDBT,26.2,f,8.0,M,4.4,F*38
$SDDBK,26.2,f,8.0,M,4.4,F*27
$SDDBS,26.2,f,8.0,M,4.4,F*3F
!AIVDO,2,1,9,A,57Paewh00001<To7;?@plD5<Tl0000000000000U1@:551c992TnA3QF,0*6A
!AIVDO,2,2,9,A,@00000000000002,2*5D
!AIVDM,2,1,9,A,57Paewh00001<To7;?@plD5<Tl0000000000000U1@:551c992TnA3QF,0*68
!AIVDM,2,2,9,A,@00000000000002,2*5F
$IIRPM,E,1,600.0,10.5,A*64
$IIRPM,E,2,600.0,10.5,A*67
~$GPRMC,090953.635,A,3500.0,S,13830.0,E,5.0,15.0,220622,,,*0C
$IIVHW,15.0,T,15.0,M,5.0,N,9.3,K*5A
$GPVTG,15.0,T,15.0,M,5.0,N,9.3,K*41
$IIHDT,15.0,T*16
$GPGLL,3500.0,S,13830.0,E,090953.635,A*20
$GPGGA,090953.635,3500.0,S,13830.0,E,1,4,1.5,2.0,M,,,,*29
$GPGSA,A,3,8,11,15,22,,,,,,,,,1.5,1.5,1.5*0A
$GPZDA,090953.635,22,06,2022,-04,00*7D
!AIVDO,1,1,,A,17PaewhP0jar0;1cv@h0UPOb0000,0*6F
!AIVDM,1,1,,A,17PaewhP0jar0;1cv@h0UPOb0000,0*6D
$WIMWD,285.0,T,285.0,M,11.0,N,5.7,M*68
$WIMWV,294.4,R,12.1,N,A*1A
$IIMTW,7.5,C*21
$SDDPT,8.0,0.3*5C
$SDDBT,26.2,f,8.0,M,4.4,F*38
$SDDBK,26.2,f,8.0,M,4.4,F*27
$SDDBS,26.2,f,8.0,M,4.4,F*3F
!AIVDO,2,1,9,A,57Paewh00001<To7;?@plD5<Tl0000000000000U1@:551c992TnA3QF,0*6A
!AIVDO,2,2,9,A,@00000000000002,2*5D
!AIVDM,2,1,9,A,57Paewh00001<To7;?@plD5<Tl0000000000000U1@:551c992TnA3QF,0*68
!AIVDM,2,2,9,A,@00000000000002,2*5F
$IIRPM,E,1,600.0,10.5,A*64
$IIRPM,E,2,600.0,10.5,A*67
~$GPRMC,090954.634,A,3500.0,S,13830.0,E,5.0,15.0,220622,,,*0A
$IIVHW,15.0,T,15.0,M,5.0,N,9.3,K*5A
$GPVTG,15.0,T,15.0,M,5.0,N,9.3,K*41
$IIHDT,15.0,T*16
$GPGLL,3500.0,S,13830.0,E,090954.634,A*26
$GPGGA,090954.634,3500.0,S,13830.0,E,1,4,1.5,2.0,M,,,,*2F
$GPGSA,A,3,8,11,15,22,,,,,,,,,1.5,1.5,1.5*0A
$GPZDA,090954.634,22,06,2022,-04,00*7B
!AIVDO,1,1,,A,17PaewhP0jar0;1cv@h0UPOd0000,0*69
!AIVDM,1,1,,A,17PaewhP0jar0;1cv@h0UPOd0000,0*6B
$WIMWD,285.0,T,285.0,M,11.0,N,5.7,M*68
$WIMWV,294.4,R,12.1,N,A*1A
$IIMTW,7.5,C*21
$SDDPT,8.0,0.3*5C
$SDDBT,26.2,f,8.0,M,4.4,F*38
$SDDBK,26.2,f,8.0,M,4.4,F*27
$SDDBS,26.2,f,8.0,M,4.4,F*3F
!AIVDO,2,1,9,A,57Paewh00001<To7;?@plD5<Tl0000000000000U1@:551c992TnA3QF,0*6A
!AIVDO,2,2,9,A,@00000000000002,2*5D
!AIVDM,2,1,9,A,57Paewh00001<To7;?@plD5<Tl0000000000000U1@:551c992TnA3QF,0*68
!AIVDM,2,2,9,A,@00000000000002,2*5F
$IIRPM,E,1,600.0,10.5,A*64
$IIRPM,E,2,600.0,10.5,A*67
~$GPRMC,090955.657,A,3500.0,S,13830.0,E,5.0,15.0,220622,,,*0E
$IIVHW,15.0,T,15.0,M,5.0,N,9.3,K*5A
$GPVTG,15.0,T,15.0,M,5.0,N,9.3,K*41
$IIHDT,15.0,T*16
$GPGLL,3500.0,S,13830.0,E,090955.657,A*22
$GPGGA,090955.657,3500.0,S,13830.0,E,1,4,1.5,2.0,M,,,,*2B
$GPGSA,A,3,8,11,15,22,,,,,,,,,1.5,1.5,1.5*0A
$GPZDA,090955.657,22,06,2022,-04,00*7F
!AIVDO,1,1,,A,17PaewhP0jar0;1cv@h0UPOf0000,0*6B
!AIVDM,1,1,,A,17PaewhP0jar0;1cv@h0UPOf0000,0*69
$WIMWD,285.0,T,285.0,M,11.0,N,5.7,M*68
$WIMWV,294.4,R,12.1,N,A*1A
$IIMTW,7.5,C*21
$SDDPT,8.0,0.3*5C
$SDDBT,26.2,f,8.0,M,4.4,F*38
$SDDBK,26.2,f,8.0,M,4.4,F*27
$SDDBS,26.2,f,8.0,M,4.4,F*3F
!AIVDO,2,1,9,A,57Paewh00001<To7;?@plD5<Tl0000000000000U1@:551c992TnA3QF,0*6A
!AIVDO,2,2,9,A,@00000000000002,2*5D
!AIVDM,2,1,9,A,57Paewh00001<To7;?@plD5<Tl0000000000000U1@:551c992TnA3QF,0*68
!AIVDM,2,2,9,A,@00000000000002,2*5F
$IIRPM,E,1,600.0,10.5,A*64
$IIRPM,E,2,600.0,10.5,A*67
~$GPRMC,090956.634,A,3500.0,S,13830.0,E,5.0,15.0,220622,,,*08
$IIVHW,15.0,T,15.0,M,5.0,N,9.3,K*5A
$GPVTG,15.0,T,15.0,M,5.0,N,9.3,K*41
$IIHDT,15.0,T*16
$GPGLL,3500.0,S,13830.0,E,090956.634,A*24
$GPGGA,090956.634,3500.0,S,13830.0,E,1,4,1.5,2.0,M,,,,*2D
$GPGSA,A,3,8,11,15,22,,,,,,,,,1.5,1.5,1.5*0A
$GPZDA,090956.634,22,06,2022,-04,00*79
!AIVDO,1,1,,A,17PaewhP0jar0;1cv@h0UPOh0000,0*65
!AIVDM,1,1,,A,17PaewhP0jar0;1cv@h0UPOh0000,0*67
$WIMWD,285.0,T,285.0,M,11.0,N,5.7,M*68
$WIMWV,294.4,R,12.1,N,A*1A
$IIMTW,7.5,C*21
$SDDPT,8.0,0.3*5C
$SDDBT,26.2,f,8.0,M,4.4,F*38
$SDDBK,26.2,f,8.0,M,4.4,F*27
$SDDBS,26.2,f,8.0,M,4.4,F*3F
!AIVDO,2,1,9,A,57Paewh00001<To7;?@plD5<Tl0000000000000U1@:551c992TnA3QF,0*6A
!AIVDO,2,2,9,A,@00000000000002,2*5D
!AIVDM,2,1,9,A,57Paewh00001<To7;?@plD5<Tl0000000000000U1@:551c992TnA3QF,0*68
!AIVDM,2,2,9,A,@00000000000002,2*5F
$IIRPM,E,1,600.0,10.5,A*64
$IIRPM,E,2,600.0,10.5,A*67
~$GPRMC,090957.684,A,3500.0,S,13830.0,E,5.0,15.0,220622,,,*02
$IIVHW,15.0,T,15.0,M,5.0,N,9.3,K*5A
$GPVTG,15.0,T,15.0,M,5.0,N,9.3,K*41
$IIHDT,15.0,T*16
$GPGLL,3500.0,S,13830.0,E,090957.684,A*2E
$GPGGA,090957.684,3500.0,S,13830.0,E,1,4,1.5,2.0,M,,,,*27
$GPGSA,A,3,8,11,15,22,,,,,,,,,1.5,1.5,1.5*0A
$GPZDA,090957.684,22,06,2022,-04,00*73
!AIVDO,1,1,,A,17PaewhP0jar0;1cv@h0UPOj0000,0*67
!AIVDM,1,1,,A,17PaewhP0jar0;1cv@h0UPOj0000,0*65
$WIMWD,285.0,T,285.0,M,11.0,N,5.7,M*68
$WIMWV,294.4,R,12.1,N,A*1A
$IIMTW,7.5,C*21
$SDDPT,8.0,0.3*5C
$SDDBT,26.2,f,8.0,M,4.4,F*38
$SDDBK,26.2,f,8.0,M,4.4,F*27
$SDDBS,26.2,f,8.0,M,4.4,F*3F
!AIVDO,2,1,9,A,57Paewh00001<To7;?@plD5<Tl0000000000000U1@:551c992TnA3QF,0*6A
!AIVDO,2,2,9,A,@00000000000002,2*5D
!AIVDM,2,1,9,A,57Paewh00001<To7;?@plD5<Tl0000000000000U1@:551c992TnA3QF,0*68
!AIVDM,2,2,9,A,@00000000000002,2*5F
$IIRPM,E,1,600.0,10.5,A*64
$IIRPM,E,2,600.0,10.5,A*67
~$GPRMC,090958.706,A,3500.0,S,13830.0,E,5.0,15.0,220622,,,*06
$IIVHW,15.0,T,15.0,M,5.0,N,9.3,K*5A
$GPVTG,15.0,T,15.0,M,5.0,N,9.3,K*41
$IIHDT,15.0,T*16
$GPGLL,3500.0,S,13830.0,E,090958.706,A*2A
$GPGGA,090958.706,3500.0,S,13830.0,E,1,4,1.5,2.0,M,,,,*23
$GPGSA,A,3,8,11,15,22,,,,,,,,,1.5,1.5,1.5*0A
$GPZDA,090958.706,22,06,2022,-04,00*77
!AIVDO,1,1,,A,17PaewhP0jar0;1cv@h0UPOl0000,0*61
!AIVDM,1,1,,A,17PaewhP0jar0;1cv@h0UPOl0000,0*63
$WIMWD,285.0,T,285.0,M,11.0,N,5.7,M*68
$WIMWV,294.4,R,12.1,N,A*1A
$IIMTW,7.5,C*21
$SDDPT,8.0,0.3*5C
$SDDBT,26.2,f,8.0,M,4.4,F*38
$SDDBK,26.2,f,8.0,M,4.4,F*27
$SDDBS,26.2,f,8.0,M,4.4,F*3F
!AIVDO,2,1,9,A,57Paewh00001<To7;?@plD5<Tl0000000000000U1@:551c992TnA3QF,0*6A
!AIVDO,2,2,9,A,@00000000000002,2*5D
!AIVDM,2,1,9,A,57Paewh00001<To7;?@plD5<Tl0000000000000U1@:551c992TnA3QF,0*68
!AIVDM,2,2,9,A,@00000000000002,2*5F
$IIRPM,E,1,600.0,10.5,A*64
$IIRPM,E,2,600.0,10.5,A*67
~$GPRMC,090959.636,A,3500.0,S,13830.0,E,5.0,15.0,220622,,,*05
$IIVHW,15.0,T,15.0,M,5.0,N,9.3,K*5A
$GPVTG,15.0,T,15.0,M,5.0,N,9.3,K*41
$IIHDT,15.0,T*16
$GPGLL,3500.0,S,13830.0,E,090959.636,A*29
$GPGGA,090959.636,3500.0,S,13830.0,E,1,4,1.5,2.0,M,,,,*20
$GPGSA,A,3,8,11,15,22,,,,,,,,,1.5,1.5,1.5*0A
$GPZDA,090959.636,22,06,2022,-04,00*74
!AIVDO,1,1,,A,17PaewhP0jar0;1cv@h0UPOn0000,0*63
!AIVDM,1,1,,A,17PaewhP0jar0;1cv@h0UPOn0000,0*61
$WIMWD,285.0,T,285.0,M,11.0,N,5.7,M*68
$WIMWV,294.4,R,12.1,N,A*1A
$IIMTW,7.5,C*21
$SDDPT,8.0,0.3*5C
$SDDBT,26.2,f,8.0,M,4.4,F*38
$SDDBK,26.2,f,8.0,M,4.4,F*27
$SDDBS,26.2,f,8.0,M,4.4,F*3F
!AIVDO,2,1,9,A,57Paewh00001<To7;?@plD5<Tl0000000000000U1@:551c992TnA3QF,0*6A
!AIVDO,2,2,9,A,@00000000000002,2*5D
!AIVDM,2,1,9,A,57Paewh00001<To7;?@plD5<Tl0000000000000U1@:551c992TnA3QF,0*68
!AIVDM,2,2,9,A,@00000000000002,2*5F
$IIRPM,E,1,600.0,10.5,A*64
$IIRPM,E,2,600.0,10.5,A*67
~$GPRMC,091000.259,A,3500.0,S,13830.0,E,5.0,15.0,220622,,,*0C
$IIVHW,15.0,T,15.0,M,5.0,N,9.3,K*5A
$GPVTG,15.0,T,15.0,M,5.0,N,9.3,K*41
$IIHDT,15.0,T*16
$GPGLL,3500.0,S,13830.0,E,091000.259,A*20
$GPGGA,091000.259,3500.0,S,13830.0,E,1,4,1.5,2.0,M,,,,*29
$GPGSA,A,3,8,11,15,22,,,,,,,,,1.5,1.5,1.5*0A
$GPZDA,091000.259,22,06,2022,-04,00*7D
!AIVDO,1,1,,A,17PaewhP0jar0;1cv@h0UPN00000,0*3C
!AIVDM,1,1,,A,17PaewhP0jar0;1cv@h0UPN00000,0*3E
$WIMWD,285.0,T,285.0,M,11.0,N,5.7,M*68
$WIMWV,294.4,R,12.1,N,A*1A
$IIMTW,7.5,C*21
$SDDPT,8.0,0.3*5C
$SDDBT,26.2,f,8.0,M,4.4,F*38
$SDDBK,26.2,f,8.0,M,4.4,F*27
$SDDBS,26.2,f,8.0,M,4.4,F*3F
!AIVDO,2,1,9,A,57Paewh00001<To7;?@plD5<Tl0000000000000U1@:551c9:2TnA3QF,0*69
!AIVDO,2,2,9,A,@00000000000002,2*5D
!AIVDM,2,1,9,A,57Paewh00001<To7;?@plD5<Tl0000000000000U1@:551c9:2TnA3QF,0*6B
!AIVDM,2,2,9,A,@00000000000002,2*5F
$IIRPM,E,1,600.0,10.5,A*64
$IIRPM,E,2,600.0,10.5,A*67
~$GPRMC,091000.634,A,3500.0,S,13830.0,E,5.0,15.0,220622,,,*03
$IIVHW,15.0,T,15.0,M,5.0,N,9.3,K*5A
$GPVTG,15.0,T,15.0,M,5.0,N,9.3,K*41
$IIHDT,15.0,T*16
$GPGLL,3500.0,S,13830.0,E,091000.634,A*2F
$GPGGA,091000.634,3500.0,S,13830.0,E,1,4,1.5,2.0,M,,,,*26
$GPGSA,A,3,8,11,15,22,,,,,,,,,1.5,1.5,1.5*0A
$GPZDA,091000.634,22,06,2022,-04,00*72
!AIVDO,1,1,,A,17PaewhP0jar0;1cv@h0UPN00000,0*3C
!AIVDM,1,1,,A,17PaewhP0jar0;1cv@h0UPN00000,0*3E
$WIMWD,285.0,T,285.0,M,11.0,N,5.7,M*68
$WIMWV,294.4,R,12.1,N,A*1A
$IIMTW,7.5,C*21
$SDDPT,8.0,0.3*5C
$SDDBT,26.2,f,8.0,M,4.4,F*38
$SDDBK,26.2,f,8.0,M,4.4,F*27
$SDDBS,26.2,f,8.0,M,4.4,F*3F
$INWPL,3500.0,S,13830.0,E,wpt*3A
!AIVDO,2,1,9,A,57Paewh00001<To7;?@plD5<Tl0000000000000U1@:551c9:2TnA3QF,0*69
!AIVDO,2,2,9,A,@00000000000002,2*5D
!AIVDM,2,1,9,A,57Paewh00001<To7;?@plD5<Tl0000000000000U1@:551c9:2TnA3QF,0*6B
!AIVDM,2,2,9,A,@00000000000002,2*5F
$IIRPM,E,1,600.0,10.5,A*64
$IIRPM,E,2,600.0,10.5,A*67
~$GPRMC,091001.635,A,3500.0,S,13830.0,E,5.0,15.0,220622,,,*03
$IIVHW,15.0,T,15.0,M,5.0,N,9.3,K*5A
$GPVTG,15.0,T,15.0,M,5.0,N,9.3,K*41
$IIHDT,15.0,T*16
$GPGLL,3500.0,S,13830.0,E,091001.635,A*2F
$GPGGA,091001.635,3500.0,S,13830.0,E,1,4,1.5,2.0,M,,,,*26
$GPGSA,A,3,8,11,15,22,,,,,,,,,1.5,1.5,1.5*0A
$GPZDA,091001.635,22,06,2022,-04,00*72
!AIVDO,1,1,,A,17PaewhP0jar0;1cv@h0UPN20000,0*3E
!AIVDM,1,1,,A,17PaewhP0jar0;1cv@h0UPN20000,0*3C
$WIMWD,285.0,T,285.0,M,11.0,N,5.7,M*68
$WIMWV,294.4,R,12.1,N,A*1A
$IIMTW,7.5,C*21
$SDDPT,8.0,0.3*5C
$SDDBT,26.2,f,8.0,M,4.4,F*38
$SDDBK,26.2,f,8.0,M,4.4,F*27
$SDDBS,26.2,f,8.0,M,4.4,F*3F
$INWPL,3500.0,S,13830.0,E,wpt*3A
!AIVDO,2,1,9,A,57Paewh00001<To7;?@plD5<Tl0000000000000U1@:551c9:2TnA3QF,0*69
!AIVDO,2,2,9,A,@00000000000002,2*5D
!AIVDM,2,1,9,A,57Paewh00001<To7;?@plD5<Tl0000000000000U1@:551c9:2TnA3QF,0*6B
!AIVDM,2,2,9,A,@00000000000002,2*5F
$IIRPM,E,1,600.0,10.5,A*64
$IIRPM,E,2,600.0,10.5,A*67
~$GPRMC,091002.635,A,3500.0,S,13830.0,E,5.0,15.0,220622,,,*00
$IIVHW,15.0,T,15.0,M,5.0,N,9.3,K*5A
$GPVTG,15.0,T,15.0,M,5.0,N,9.3,K*41
$IIHDT,15.0,T*16
$GPGLL,3500.0,S,13830.0,E,091002.635,A*2C
$GPGGA,091002.635,3500.0,S,13830.0,E,1,4,1.5,2.0,M,,,,*25
$GPGSA,A,3,8,11,15,22,,,,,,,,,1.5,1.5,1.5*0A
$GPZDA,091002.635,22,06,2022,-04,00*71
!AIVDO,1,1,,A,17PaewhP0jar0;1cv@h0UPN40000,0*38
!AIVDM,1,1,,A,17PaewhP0jar0;1cv@h0UPN40000,0*3A
$WIMWD,285.0,T,285.0,M,11.0,N,5.7,M*68
$WIMWV,294.4,R,12.1,N,A*1A
$IIMTW,7.5,C*21
$SDDPT,8.0,0.3*5C
$SDDBT,26.2,f,8.0,M,4.4,F*38
$SDDBK,26.2,f,8.0,M,4.4,F*27
$SDDBS,26.2,f,8.0,M,4.4,F*3F
$INWPL,3500.0,S,13830.0,E,wpt*3A
!AIVDO,2,1,9,A,57Paewh00001<To7;?@plD5<Tl0000000000000U1@:551c9:2TnA3QF,0*69
!AIVDO,2,2,9,A,@00000000000002,2*5D
!AIVDM,2,1,9,A,57Paewh00001<To7;?@plD5<Tl0000000000000U1@:551c9:2TnA3QF,0*6B
!AIVDM,2,2,9,A,@00000000000002,2*5F
$IIRPM,E,1,600.0,10.5,A*64
$IIRPM,E,2,600.0,10.5,A*67
~$GPRMC,091003.635,A,3500.0,S,13830.0,E,5.0,15.0,220622,,,*01
$IIVHW,15.0,T,15.0,M,5.0,N,9.3,K*5A
$GPVTG,15.0,T,15.0,M,5.0,N,9.3,K*41
$IIHDT,15.0,T*16
$GPGLL,3500.0,S,13830.0,E,091003.635,A*2D
$GPGGA,091003.635,3500.0,S,13830.0,E,1,4,1.5,2.0,M,,,,*24
$GPGSA,A,3,8,11,15,22,,,,,,,,,1.5,1.5,1.5*0A
$GPZDA,091003.635,22,06,2022,-04,00*70
!AIVDO,1,1,,A,17PaewhP0jar0;1cv@h0UPN60000,0*3A
!AIVDM,1,1,,A,17PaewhP0jar0;1cv@h0UPN60000,0*38
$WIMWD,285.0,T,285.0,M,11.0,N,5.7,M*68
$WIMWV,294.4,R,12.1,N,A*1A
$IIMTW,7.5,C*21
$SDDPT,8.0,0.3*5C
$SDDBT,26.2,f,8.0,M,4.4,F*38
$SDDBK,26.2,f,8.0,M,4.4,F*27
$SDDBS,26.2,f,8.0,M,4.4,F*3F
$INWPL,3500.0,S,13830.0,E,wpt*3A
!AIVDO,2,1,9,A,57Paewh00001<To7;?@plD5<Tl0000000000000U1@:551c9:2TnA3QF,0*69
!AIVDO,2,2,9,A,@00000000000002,2*5D
!AIVDM,2,1,9,A,57Paewh00001<To7;?@plD5<Tl0000000000000U1@:551c9:2TnA3QF,0*6B
!AIVDM,2,2,9,A,@00000000000002,2*5F
$IIRPM,E,1,600.0,10.5,A*64
$IIRPM,E,2,600.0,10.5,A*67
~$GPRMC,091004.636,A,3500.0,S,13830.0,E,5.0,15.0,220622,,,*05
$IIVHW,15.0,T,15.0,M,5.0,N,9.3,K*5A
$GPVTG,15.0,T,15.0,M,5.0,N,9.3,K*41
$IIHDT,15.0,T*16
$GPGLL,3500.0,S,13830.0,E,091004.636,A*29
$GPGGA,091004.636,3500.0,S,13830.0,E,1,4,1.5,2.0,M,,,,*20
$GPGSA,A,3,8,11,15,22,,,,,,,,,1.5,1.5,1.5*0A
$GPZDA,091004.636,22,06,2022,-04,00*74
!AIVDO,1,1,,A,17PaewhP0jar0;1cv@h0UPN80000,0*34
!AIVDM,1,1,,A,17PaewhP0jar0;1cv@h0UPN80000,0*36
$WIMWD,285.0,T,285.0,M,11.0,N,5.7,M*68
$WIMWV,294.4,R,12.1,N,A*1A
$IIMTW,7.5,C*21
$SDDPT,8.0,0.3*5C
$SDDBT,26.2,f,8.0,M,4.4,F*38
$SDDBK,26.2,f,8.0,M,4.4,F*27
$SDDBS,26.2,f,8.0,M,4.4,F*3F
$INWPL,3500.0,S,13830.0,E,wpt*3A
!AIVDO,2,1,9,A,57Paewh00001<To7;?@plD5<Tl0000000000000U1@:551c9:2TnA3QF,0*69
!AIVDO,2,2,9,A,@00000000000002,2*5D
!AIVDM,2,1,9,A,57Paewh00001<To7;?@plD5<Tl0000000000000U1@:551c9:2TnA3QF,0*6B
!AIVDM,2,2,9,A,@00000000000002,2*5F
$IIRPM,E,1,600.0,10.5,A*64
$IIRPM,E,2,600.0,10.5,A*67
~$GPRMC,091005.635,A,3500.0,S,13830.0,E,5.0,15.0,220622,,,*07
$IIVHW,15.0,T,15.0,M,5.0,N,9.3,K*5A
$GPVTG,15.0,T,15.0,M,5.0,N,9.3,K*41
$IIHDT,15.0,T*16
$GPGLL,3500.0,S,13830.0,E,091005.635,A*2B
$GPGGA,091005.635,3500.0,S,13830.0,E,1,4,1.5,2.0,M,,,,*22
$GPGSA,A,3,8,11,15,22,,,,,,,,,1.5,1.5,1.5*0A
$GPZDA,091005.635,22,06,2022,-04,00*76
!AIVDO,1,1,,A,17PaewhP0jar0;1cv@h0UPN:0000,0*36
!AIVDM,1,1,,A,17PaewhP0jar0;1cv@h0UPN:0000,0*34
$WIMWD,285.0,T,285.0,M,11.0,N,5.7,M*68
$WIMWV,294.4,R,12.1,N,A*1A
$IIMTW,7.5,C*21
$SDDPT,8.0,0.3*5C
$SDDBT,26.2,f,8.0,M,4.4,F*38
$SDDBK,26.2,f,8.0,M,4.4,F*27
$SDDBS,26.2,f,8.0,M,4.4,F*3F
$INWPL,3500.0,S,13830.0,E,wpt*3A
!AIVDO,2,1,9,A,57Paewh00001<To7;?@plD5<Tl0000000000000U1@:551c9:2TnA3QF,0*69
!AIVDO,2,2,9,A,@00000000000002,2*5D
!AIVDM,2,1,9,A,57Paewh00001<To7;?@plD5<Tl0000000000000U1@:551c9:2TnA3QF,0*6B
!AIVDM,2,2,9,A,@00000000000002,2*5F
$IIRPM,E,1,600.0,10.5,A*64
$IIRPM,E,2,600.0,10.5,A*67
~$GPRMC,091006.635,A,3500.0,S,13830.0,E,5.0,15.0,220622,,,*04
$IIVHW,15.0,T,15.0,M,5.0,N,9.3,K*5A
$GPVTG,15.0,T,15.0,M,5.0,N,9.3,K*41
$IIHDT,15.0,T*16
$GPGLL,3500.0,S,13830.0,E,091006.635,A*28
$GPGGA,091006.635,3500.0,S,13830.0,E,1,4,1.5,2.0,M,,,,*21
$GPGSA,A,3,8,11,15,22,,,,,,,,,1.5,1.5,1.5*0A
$GPZDA,091006.635,22,06,2022,-04,00*75
!AIVDO,1,1,,A,17PaewhP0jar0;1cv@h0UPN<0000,0*30
!AIVDM,1,1,,A,17PaewhP0jar0;1cv@h0UPN<0000,0*32
$WIMWD,285.0,T,285.0,M,11.0,N,5.7,M*68
$WIMWV,294.4,R,12.1,N,A*1A
$IIMTW,7.5,C*21
$SDDPT,8.0,0.3*5C
$SDDBT,26.2,f,8.0,M,4.4,F*38
$SDDBK,26.2,f,8.0,M,4.4,F*27
$SDDBS,26.2,f,8.0,M,4.4,F*3F
$INWPL,3500.0,S,13830.0,E,wpt*3A
!AIVDO,2,1,9,A,57Paewh00001<To7;?@plD5<Tl0000000000000U1@:551c9:2TnA3QF,0*69
!AIVDO,2,2,9,A,@00000000000002,2*5D
!AIVDM,2,1,9,A,57Paewh00001<To7;?@plD5<Tl0000000000000U1@:551c9:2TnA3QF,0*6B
!AIVDM,2,2,9,A,@00000000000002,2*5F
$IIRPM,E,1,600.0,10.5,A*64
$IIRPM,E,2,600.0,10.5,A*67
~$GPRMC,091007.636,A,3500.0,S,13830.0,E,5.0,15.0,220622,,,*06
$IIVHW,15.0,T,15.0,M,5.0,N,9.3,K*5A
$GPVTG,15.0,T,15.0,M,5.0,N,9.3,K*41
$IIHDT,15.0,T*16
$GPGLL,3500.0,S,13830.0,E,091007.636,A*2A
$GPGGA,091007.636,3500.0,S,13830.0,E,1,4,1.5,2.0,M,,,,*23
$GPGSA,A,3,8,11,15,22,,,,,,,,,1.5,1.5,1.5*0A
$GPZDA,091007.636,22,06,2022,-04,00*77
!AIVDO,1,1,,A,17PaewhP0jar0;1cv@h0UPN>0000,0*32
!AIVDM,1,1,,A,17PaewhP0jar0;1cv@h0UPN>0000,0*30
$WIMWD,285.0,T,285.0,M,11.0,N,5.7,M*68
$WIMWV,294.4,R,12.1,N,A*1A
$IIMTW,7.5,C*21
$SDDPT,8.0,0.3*5C
$SDDBT,26.2,f,8.0,M,4.4,F*38
$SDDBK,26.2,f,8.0,M,4.4,F*27
$SDDBS,26.2,f,8.0,M,4.4,F*3F
$INWPL,3500.0,S,13830.0,E,wpt*3A
!AIVDO,2,1,9,A,57Paewh00001<To7;?@plD5<Tl0000000000000U1@:551c9:2TnA3QF,0*69
!AIVDO,2,2,9,A,@00000000000002,2*5D
!AIVDM,2,1,9,A,57Paewh00001<To7;?@plD5<Tl0000000000000U1@:551c9:2TnA3QF,0*6B
!AIVDM,2,2,9,A,@00000000000002,2*5F
$IIRPM,E,1,600.0,10.5,A*64
$IIRPM,E,2,600.0,10.5,A*67
~$GPRMC,091008.668,A,3500.0,S,13830.0,E,5.0,15.0,220622,,,*02
$IIVHW,15.0,T,15.0,M,5.0,N,9.3,K*5A
$GPVTG,15.0,T,15.0,M,5.0,N,9.3,K*41
$IIHDT,15.0,T*16
$GPGLL,3500.0,S,13830.0,E,091008.668,A*2E
$GPGGA,091008.668,3500.0,S,13830.0,E,1,4,1.5,2.0,M,,,,*27
$GPGSA,A,3,8,11,15,22,,,,,,,,,1.5,1.5,1.5*0A
$GPZDA,091008.668,22,06,2022,-04,00*73
!AIVDO,1,1,,A,17PaewhP0jar0;1cv@h0UPN@0000,0*4C
!AIVDM,1,1,,A,17PaewhP0jar0;1cv@h0UPN@0000,0*4E
$WIMWD,285.0,T,285.0,M,11.0,N,5.7,M*68
$WIMWV,294.4,R,12.1,N,A*1A
$IIMTW,7.5,C*21
$SDDPT,8.0,0.3*5C
$SDDBT,26.2,f,8.0,M,4.4,F*38
$SDDBK,26.2,f,8.0,M,4.4,F*27
$SDDBS,26.2,f,8.0,M,4.4,F*3F
$INWPL,3500.0,S,13830.0,E,wpt*3A
!AIVDO,2,1,9,A,57Paewh00001<To7;?@plD5<Tl0000000000000U1@:551c9:2TnA3QF,0*69
!AIVDO,2,2,9,A,@00000000000002,2*5D
!AIVDM,2,1,9,A,57Paewh00001<To7;?@plD5<Tl0000000000000U1@:551c9:2TnA3QF,0*6B
!AIVDM,2,2,9,A,@00000000000002,2*5F
$IIRPM,E,1,600.0,10.5,A*64
$IIRPM,E,2,600.0,10.5,A*67
~$GPRMC,091009.635,A,3500.0,S,13830.0,E,5.0,15.0,220622,,,*0B
$IIVHW,15.0,T,15.0,M,5.0,N,9.3,K*5A
$GPVTG,15.0,T,15.0,M,5.0,N,9.3,K*41
$IIHDT,15.0,T*16
$GPGLL,3500.0,S,13830.0,E,091009.635,A*27
$GPGGA,091009.635,3500.0,S,13830.0,E,1,4,1.5,2.0,M,,,,*2E
$GPGSA,A,3,8,11,15,22,,,,,,,,,1.5,1.5,1.5*0A
$GPZDA,091009.635,22,06,2022,-04,00*7A
!AIVDO,1,1,,A,17PaewhP0jar0;1cv@h0UPNB0000,0*4E
!AIVDM,1,1,,A,17PaewhP0jar0;1cv@h0UPNB0000,0*4C
$WIMWD,285.0,T,285.0,M,11.0,N,5.7,M*68
$WIMWV,294.4,R,12.1,N,A*1A
$IIMTW,7.5,C*21
$SDDPT,8.0,0.3*5C
$SDDBT,26.2,f,8.0,M,4.4,F*38
$SDDBK,26.2,f,8.0,M,4.4,F*27
$SDDBS,26.2,f,8.0,M,4.4,F*3F
$INWPL,3500.0,S,13830.0,E,wpt*3A
!AIVDO,2,1,9,A,57Paewh00001<To7;?@plD5<Tl0000000000000U1@:551c9:2TnA3QF,0*69
!AIVDO,2,2,9,A,@00000000000002,2*5D
!AIVDM,2,1,9,A,57Paewh00001<To7;?@plD5<Tl0000000000000U1@:551c9:2TnA3QF,0*6B
!AIVDM,2,2,9,A,@00000000000002,2*5F
$IIRPM,E,1,600.0,10.5,A*64
$IIRPM,E,2,600.0,10.5,A*67
~$GPRMC,091010.635,A,3500.0,S,13830.0,E,5.0,15.0,220622,,,*03
$IIVHW,15.0,T,15.0,M,5.0,N,9.3,K*5A
$GPVTG,15.0,T,15.0,M,5.0,N,9.3,K*41
$IIHDT,15.0,T*16
$GPGLL,3500.0,S,13830.0,E,091010.635,A*2F
$GPGGA,091010.635,3500.0,S,13830.0,E,1,4,1.5,2.0,M,,,,*26
$GPGSA,A,3,8,11,15,22,,,,,,,,,1.5,1.5,1.5*0A
$GPZDA,091010.635,22,06,2022,-04,00*72
!AIVDO,1,1,,A,17PaewhP0jar0;1cv@h0UPND0000,0*48
!AIVDM,1,1,,A,17PaewhP0jar0;1cv@h0UPND0000,0*4A
$WIMWD,285.0,T,285.0,M,11.0,N,5.7,M*68
$WIMWV,294.4,R,12.1,N,A*1A
$IIMTW,7.5,C*21
$SDDPT,8.0,0.3*5C
$SDDBT,26.2,f,8.0,M,4.4,F*38
$SDDBK,26.2,f,8.0,M,4.4,F*27
$SDDBS,26.2,f,8.0,M,4.4,F*3F
$INWPL,3500.0,S,13830.0,E,wpt*3A
!AIVDO,2,1,9,A,57Paewh00001<To7;?@plD5<Tl0000000000000U1@:551c9:2TnA3QF,0*69
!AIVDO,2,2,9,A,@00000000000002,2*5D
!AIVDM,2,1,9,A,57Paewh00001<To7;?@plD5<Tl0000000000000U1@:551c9:2TnA3QF,0*6B
!AIVDM,2,2,9,A,@00000000000002,2*5F
$IIRPM,E,1,600.0,10.5,A*64
$IIRPM,E,2,600.0,10.5,A*67
~$GPRMC,091011.637,A,3500.0,S,13830.0,E,5.0,15.0,220622,,,*00
$IIVHW,15.0,T,15.0,M,5.0,N,9.3,K*5A
$GPVTG,15.0,T,15.0,M,5.0,N,9.3,K*41
$IIHDT,15.0,T*16
$GPGLL,3500.0,S,13830.0,E,091011.637,A*2C
$GPGGA,091011.637,3500.0,S,13830.0,E,1,4,1.5,2.0,M,,,,*25
$GPGSA,A,3,8,11,15,22,,,,,,,,,1.5,1.5,1.5*0A
$GPZDA,091011.637,22,06,2022,-04,00*71
!AIVDO,1,1,,A,17PaewhP0jar0;1cv@h0UPNF0000,0*4A
!AIVDM,1,1,,A,17PaewhP0jar0;1cv@h0UPNF0000,0*48
$WIMWD,285.0,T,285.0,M,11.0,N,5.7,M*68
$WIMWV,294.4,R,12.1,N,A*1A
$IIMTW,7.5,C*21
$SDDPT,8.0,0.3*5C
$SDDBT,26.2,f,8.0,M,4.4,F*38
$SDDBK,26.2,f,8.0,M,4.4,F*27
$SDDBS,26.2,f,8.0,M,4.4,F*3F
$INWPL,3500.0,S,13830.0,E,wpt*3A
!AIVDO,2,1,9,A,57Paewh00001<To7;?@plD5<Tl0000000000000U1@:551c9:2TnA3QF,0*69
!AIVDO,2,2,9,A,@00000000000002,2*5D
!AIVDM,2,1,9,A,57Paewh00001<To7;?@plD5<Tl0000000000000U1@:551c9:2TnA3QF,0*6B
!AIVDM,2,2,9,A,@00000000000002,2*5F
$IIRPM,E,1,600.0,10.5,A*64
$IIRPM,E,2,600.0,10.5,A*67
~$GPRMC,091012.635,A,3500.0,S,13830.0,E,5.0,15.0,220622,,,*01
$IIVHW,15.0,T,15.0,M,5.0,N,9.3,K*5A
$GPVTG,15.0,T,15.0,M,5.0,N,9.3,K*41
$IIHDT,15.0,T*16
$GPGLL,3500.0,S,13830.0,E,091012.635,A*2D
$GPGGA,091012.635,3500.0,S,13830.0,E,1,4,1.5,2.0,M,,,,*24
$GPGSA,A,3,8,11,15,22,,,,,,,,,1.5,1.5,1.5*0A
$GPZDA,091012.635,22,06,2022,-04,00*70
!AIVDO,1,1,,A,17PaewhP0jar0;1cv@h0UPNH0000,0*44
!AIVDM,1,1,,A,17PaewhP0jar0;1cv@h0UPNH0000,0*46
$WIMWD,285.0,T,285.0,M,11.0,N,5.7,M*68
$WIMWV,294.4,R,12.1,N,A*1A
$IIMTW,7.5,C*21
$SDDPT,8.0,0.3*5C
$SDDBT,26.2,f,8.0,M,4.4,F*38
$SDDBK,26.2,f,8.0,M,4.4,F*27
$SDDBS,26.2,f,8.0,M,4.4,F*3F
$INWPL,3500.0,S,13830.0,E,wpt*3A
!AIVDO,2,1,9,A,57Paewh00001<To7;?@plD5<Tl0000000000000U1@:551c9:2TnA3QF,0*69
!AIVDO,2,2,9,A,@00000000000002,2*5D
!AIVDM,2,1,9,A,57Paewh00001<To7;?@plD5<Tl0000000000000U1@:551c9:2TnA3QF,0*6B
!AIVDM,2,2,9,A,@00000000000002,2*5F
$IIRPM,E,1,600.0,10.5,A*64
$IIRPM,E,2,600.0,10.5,A*67
~$GPRMC,091013.636,A,3500.0,S,13830.0,E,5.0,15.0,220622,,,*03
$IIVHW,15.0,T,15.0,M,5.0,N,9.3,K*5A
$GPVTG,15.0,T,15.0,M,5.0,N,9.3,K*41
$IIHDT,15.0,T*16
$GPGLL,3500.0,S,13830.0,E,091013.636,A*2F
$GPGGA,091013.636,3500.0,S,13830.0,E,1,4,1.5,2.0,M,,,,*26
$GPGSA,A,3,8,11,15,22,,,,,,,,,1.5,1.5,1.5*0A
$GPZDA,091013.636,22,06,2022,-04,00*72
!AIVDO,1,1,,A,17PaewhP0jar0;1cv@h0UPNJ0000,0*46
!AIVDM,1,1,,A,17PaewhP0jar0;1cv@h0UPNJ0000,0*44
$WIMWD,285.0,T,285.0,M,11.0,N,5.7,M*68
$WIMWV,294.4,R,12.1,N,A*1A
$IIMTW,7.5,C*21
$SDDPT,8.0,0.3*5C
$SDDBT,26.2,f,8.0,M,4.4,F*38
$SDDBK,26.2,f,8.0,M,4.4,F*27
$SDDBS,26.2,f,8.0,M,4.4,F*3F
$INWPL,3500.0,S,13830.0,E,wpt*3A
!AIVDO,2,1,9,A,57Paewh00001<To7;?@plD5<Tl0000000000000U1@:551c9:2TnA3QF,0*69
!AIVDO,2,2,9,A,@00000000000002,2*5D
!AIVDM,2,1,9,A,57Paewh00001<To7;?@plD5<Tl0000000000000U1@:551c9:2TnA3QF,0*6B
!AIVDM,2,2,9,A,@00000000000002,2*5F
$IIRPM,E,1,600.0,10.5,A*64
$IIRPM,E,2,600.0,10.5,A*67
~$GPRMC,091014.639,A,3500.0,S,13830.0,E,5.0,15.0,220622,,,*0B
$IIVHW,15.0,T,15.0,M,5.0,N,9.3,K*5A
$GPVTG,15.0,T,15.0,M,5.0,N,9.3,K*41
$IIHDT,15.0,T*16
$GPGLL,3500.0,S,13830.0,E,091014.639,A*27
$GPGGA,091014.639,3500.0,S,13830.0,E,1,4,1.5,2.0,M,,,,*2E
$GPGSA,A,3,8,11,15,22,,,,,,,,,1.5,1.5,1.5*0A
$GPZDA,091014.639,22,06,2022,-04,00*7A
!AIVDO,1,1,,A,17PaewhP0jar0;1cv@h0UPNL0000,0*40
!AIVDM,1,1,,A,17PaewhP0jar0;1cv@h0UPNL0000,0*42
$WIMWD,285.0,T,285.0,M,11.0,N,5.7,M*68
$WIMWV,294.4,R,12.1,N,A*1A
$IIMTW,7.5,C*21
$SDDPT,8.0,0.3*5C
$SDDBT,26.2,f,8.0,M,4.4,F*38
$SDDBK,26.2,f,8.0,M,4.4,F*27
$SDDBS,26.2,f,8.0,M,4.4,F*3F
$INWPL,3500.0,S,13830.0,E,wpt*3A
!AIVDO,2,1,9,A,57Paewh00001<To7;?@plD5<Tl0000000000000U1@:551c9:2TnA3QF,0*69
!AIVDO,2,2,9,A,@00000000000002,2*5D
!AIVDM,2,1,9,A,57Paewh00001<To7;?@plD5<Tl0000000000000U1@:551c9:2TnA3QF,0*6B
!AIVDM,2,2,9,A,@00000000000002,2*5F
$IIRPM,E,1,600.0,10.5,A*64
$IIRPM,E,2,600.0,10.5,A*67
~$GPRMC,091015.635,A,3500.0,S,13830.0,E,5.0,15.0,220622,,,*06
$IIVHW,15.0,T,15.0,M,5.0,N,9.3,K*5A
$GPVTG,15.0,T,15.0,M,5.0,N,9.3,K*41
$IIHDT,15.0,T*16
$GPGLL,3500.0,S,13830.0,E,091015.635,A*2A
$GPGGA,091015.635,3500.0,S,13830.0,E,1,4,1.5,2.0,M,,,,*23
$GPGSA,A,3,8,11,15,22,,,,,,,,,1.5,1.5,1.5*0A
$GPZDA,091015.635,22,06,2022,-04,00*77
!AIVDO,1,1,,A,17PaewhP0jar0;1cv@h0UPNN0000,0*42
!AIVDM,1,1,,A,17PaewhP0jar0;1cv@h0UPNN0000,0*40
$WIMWD,285.0,T,285.0,M,11.0,N,5.7,M*68
$WIMWV,294.4,R,12.1,N,A*1A
$IIMTW,7.5,C*21
$SDDPT,8.0,0.3*5C
$SDDBT,26.2,f,8.0,M,4.4,F*38
$SDDBK,26.2,f,8.0,M,4.4,F*27
$SDDBS,26.2,f,8.0,M,4.4,F*3F
$INWPL,3500.0,S,13830.0,E,wpt*3A
!AIVDO,2,1,9,A,57Paewh00001<To7;?@plD5<Tl0000000000000U1@:551c9:2TnA3QF,0*69
!AIVDO,2,2,9,A,@00000000000002,2*5D
!AIVDM,2,1,9,A,57Paewh00001<To7;?@plD5<Tl0000000000000U1@:551c9:2TnA3QF,0*6B
!AIVDM,2,2,9,A,@00000000000002,2*5F
$IIRPM,E,1,600.0,10.5,A*64
$IIRPM,E,2,600.0,10.5,A*67
~$GPRMC,091016.635,A,3500.0,S,13830.0,E,5.0,15.0,220622,,,*05
$IIVHW,15.0,T,15.0,M,5.0,N,9.3,K*5A
$GPVTG,15.0,T,15.0,M,5.0,N,9.3,K*41
$IIHDT,15.0,T*16
$GPGLL,3500.0,S,13830.0,E,091016.635,A*29
$GPGGA,091016.635,3500.0,S,13830.0,E,1,4,1.5,2.0,M,,,,*20
$GPGSA,A,3,8,11,15,22,,,,,,,,,1.5,1.5,1.5*0A
$GPZDA,091016.635,22,06,2022,-04,00*74
!AIVDO,1,1,,A,17PaewhP0jar0;1cv@h0UPNP0000,0*5C
!AIVDM,1,1,,A,17PaewhP0jar0;1cv@h0UPNP0000,0*5E
$WIMWD,285.0,T,285.0,M,11.0,N,5.7,M*68
$WIMWV,294.4,R,12.1,N,A*1A
$IIMTW,7.5,C*21
$SDDPT,8.0,0.3*5C
$SDDBT,26.2,f,8.0,M,4.4,F*38
$SDDBK,26.2,f,8.0,M,4.4,F*27
$SDDBS,26.2,f,8.0,M,4.4,F*3F
$INWPL,3500.0,S,13830.0,E,wpt*3A
!AIVDO,2,1,9,A,57Paewh00001<To7;?@plD5<Tl0000000000000U1@:551c9:2TnA3QF,0*69
!AIVDO,2,2,9,A,@00000000000002,2*5D
!AIVDM,2,1,9,A,57Paewh00001<To7;?@plD5<Tl0000000000000U1@:551c9:2TnA3QF,0*6B
!AIVDM,2,2,9,A,@00000000000002,2*5F
$IIRPM,E,1,600.0,10.5,A*64
$IIRPM,E,2,600.0,10.5,A*67
~$GPRMC,091017.635,A,3500.0,S,13830.0,E,5.0,15.0,220622,,,*04
$IIVHW,15.0,T,15.0,M,5.0,N,9.3,K*5A
$GPVTG,15.0,T,15.0,M,5.0,N,9.3,K*41
$IIHDT,15.0,T*16
$GPGLL,3500.0,S,13830.0,E,091017.635,A*28
$GPGGA,091017.635,3500.0,S,13830.0,E,1,4,1.5,2.0,M,,,,*21
$GPGSA,A,3,8,11,15,22,,,,,,,,,1.5,1.5,1.5*0A
$GPZDA,091017.635,22,06,2022,-04,00*75
!AIVDO,1,1,,A,17PaewhP0jar0;1cv@h0UPNR0000,0*5E
!AIVDM,1,1,,A,17PaewhP0jar0;1cv@h0UPNR0000,0*5C
$WIMWD,285.0,T,285.0,M,11.0,N,5.7,M*68
$WIMWV,294.4,R,12.1,N,A*1A
$IIMTW,7.5,C*21
$SDDPT,8.0,0.3*5C
$SDDBT,26.2,f,8.0,M,4.4,F*38
$SDDBK,26.2,f,8.0,M,4.4,F*27
$SDDBS,26.2,f,8.0,M,4.4,F*3F
$INWPL,3500.0,S,13830.0,E,wpt*3A
!AIVDO,2,1,9,A,57Paewh00001<To7;?@plD5<Tl0000000000000U1@:551c9:2TnA3QF,0*69
!AIVDO,2,2,9,A,@00000000000002,2*5D
!AIVDM,2,1,9,A,57Paewh00001<To7;?@plD5<Tl0000000000000U1@:551c9:2TnA3QF,0*6B
!AIVDM,2,2,9,A,@00000000000002,2*5F
$IIRPM,E,1,600.0,10.5,A*64
$IIRPM,E,2,600.0,10.5,A*67
~$GPRMC,091018.636,A,3500.0,S,13830.0,E,5.0,15.0,220622,,,*08
$IIVHW,15.0,T,15.0,M,5.0,N,9.3,K*5A
$GPVTG,15.0,T,15.0,M,5.0,N,9.3,K*41
$IIHDT,15.0,T*16
$GPGLL,3500.0,S,13830.0,E,091018.636,A*24
$GPGGA,091018.636,3500.0,S,13830.0,E,1,4,1.5,2.0,M,,,,*2D
$GPGSA,A,3,8,11,15,22,,,,,,,,,1.5,1.5,1.5*0A
$GPZDA,091018.636,22,06,2022,-04,00*79
!AIVDO,1,1,,A,17PaewhP0jar0;1cv@h0UPNT0000,0*58
!AIVDM,1,1,,A,17PaewhP0jar0;1cv@h0UPNT0000,0*5A
$WIMWD,285.0,T,285.0,M,11.0,N,5.7,M*68
$WIMWV,294.4,R,12.1,N,A*1A
$IIMTW,7.5,C*21
$SDDPT,8.0,0.3*5C
$SDDBT,26.2,f,8.0,M,4.4,F*38
$SDDBK,26.2,f,8.0,M,4.4,F*27
$SDDBS,26.2,f,8.0,M,4.4,F*3F
$INWPL,3500.0,S,13830.0,E,wpt*3A
!AIVDO,2,1,9,A,57Paewh00001<To7;?@plD5<Tl0000000000000U1@:551c9:2TnA3QF,0*69
!AIVDO,2,2,9,A,@00000000000002,2*5D
!AIVDM,2,1,9,A,57Paewh00001<To7;?@plD5<Tl0000000000000U1@:551c9:2TnA3QF,0*6B
!AIVDM,2,2,9,A,@00000000000002,2*5F
$IIRPM,E,1,600.0,10.5,A*64
$IIRPM,E,2,600.0,10.5,A*67
~$GPRMC,091019.635,A,3500.0,S,13830.0,E,5.0,15.0,220622,,,*0A
$IIVHW,15.0,T,15.0,M,5.0,N,9.3,K*5A
$GPVTG,15.0,T,15.0,M,5.0,N,9.3,K*41
$IIHDT,15.0,T*16
$GPGLL,3500.0,S,13830.0,E,091019.635,A*26
$GPGGA,091019.635,3500.0,S,13830.0,E,1,4,1.5,2.0,M,,,,*2F
$GPGSA,A,3,8,11,15,22,,,,,,,,,1.5,1.5,1.5*0A
$GPZDA,091019.635,22,06,2022,-04,00*7B
!AIVDO,1,1,,A,17PaewhP0jar0;1cv@h0UPNV0000,0*5A
!AIVDM,1,1,,A,17PaewhP0jar0;1cv@h0UPNV0000,0*58
$WIMWD,285.0,T,285.0,M,11.0,N,5.7,M*68
$WIMWV,294.4,R,12.1,N,A*1A
$IIMTW,7.5,C*21
$SDDPT,8.0,0.3*5C
$SDDBT,26.2,f,8.0,M,4.4,F*38
$SDDBK,26.2,f,8.0,M,4.4,F*27
$SDDBS,26.2,f,8.0,M,4.4,F*3F
$INWPL,3500.0,S,13830.0,E,wpt*3A
!AIVDO,2,1,9,A,57Paewh00001<To7;?@plD5<Tl0000000000000U1@:551c9:2TnA3QF,0*69
!AIVDO,2,2,9,A,@00000000000002,2*5D
!AIVDM,2,1,9,A,57Paewh00001<To7;?@plD5<Tl0000000000000U1@:551c9:2TnA3QF,0*6B
!AIVDM,2,2,9,A,@00000000000002,2*5F
$IIRPM,E,1,600.0,10.5,A*64
$IIRPM,E,2,600.0,10.5,A*67
~$GPRMC,091020.634,A,3500.0,S,13830.0,E,5.0,15.0,220622,,,*01
$IIVHW,15.0,T,15.0,M,5.0,N,9.3,K*5A
$GPVTG,15.0,T,15.0,M,5.0,N,9.3,K*41
$IIHDT,15.0,T*16
$GPGLL,3500.0,S,13830.0,E,091020.634,A*2D
$GPGGA,091020.634,3500.0,S,13830.0,E,1,4,1.5,2.0,M,,,,*24
$GPGSA,A,3,8,11,15,22,,,,,,,,,1.5,1.5,1.5*0A
$GPZDA,091020.634,22,06,2022,-04,00*70
!AIVDO,1,1,,A,17PaewhP0jar0;1cv@h0UPN`0000,0*6C
!AIVDM,1,1,,A,17PaewhP0jar0;1cv@h0UPN`0000,0*6E
$WIMWD,285.0,T,285.0,M,11.0,N,5.7,M*68
$WIMWV,294.4,R,12.1,N,A*1A
$IIMTW,7.5,C*21
$SDDPT,8.0,0.3*5C
$SDDBT,26.2,f,8.0,M,4.4,F*38
$SDDBK,26.2,f,8.0,M,4.4,F*27
$SDDBS,26.2,f,8.0,M,4.4,F*3F
$INWPL,3500.0,S,13830.0,E,wpt*3A
!AIVDO,2,1,9,A,57Paewh00001<To7;?@plD5<Tl0000000000000U1@:551c9:2TnA3QF,0*69
!AIVDO,2,2,9,A,@00000000000002,2*5D
!AIVDM,2,1,9,A,57Paewh00001<To7;?@plD5<Tl0000000000000U1@:551c9:2TnA3QF,0*6B
!AIVDM,2,2,9,A,@00000000000002,2*5F
$IIRPM,E,1,600.0,10.5,A*64
$IIRPM,E,2,600.0,10.5,A*67
~$GPRMC,091021.635,A,3500.0,S,13830.0,E,5.0,15.0,220622,,,*01
$IIVHW,15.0,T,15.0,M,5.0,N,9.3,K*5A
$GPVTG,15.0,T,15.0,M,5.0,N,9.3,K*41
$IIHDT,15.0,T*16
$GPGLL,3500.0,S,13830.0,E,091021.635,A*2D
$GPGGA,091021.635,3500.0,S,13830.0,E,1,4,1.5,2.0,M,,,,*24
$GPGSA,A,3,8,11,15,22,,,,,,,,,1.5,1.5,1.5*0A
$GPZDA,091021.635,22,06,2022,-04,00*70
!AIVDO,1,1,,A,17PaewhP0jar0;1cv@h0UPNb0000,0*6E
!AIVDM,1,1,,A,17PaewhP0jar0;1cv@h0UPNb0000,0*6C
$WIMWD,285.0,T,285.0,M,11.0,N,5.7,M*68
$WIMWV,294.4,R,12.1,N,A*1A
$IIMTW,7.5,C*21
$SDDPT,8.0,0.3*5C
$SDDBT,26.2,f,8.0,M,4.4,F*38
$SDDBK,26.2,f,8.0,M,4.4,F*27
$SDDBS,26.2,f,8.0,M,4.4,F*3F
$INWPL,3500.0,S,13830.0,E,wpt*3A
!AIVDO,2,1,9,A,57Paewh00001<To7;?@plD5<Tl0000000000000U1@:551c9:2TnA3QF,0*69
!AIVDO,2,2,9,A,@00000000000002,2*5D
!AIVDM,2,1,9,A,57Paewh00001<To7;?@plD5<Tl0000000000000U1@:551c9:2TnA3QF,0*6B
!AIVDM,2,2,9,A,@00000000000002,2*5F
$IIRPM,E,1,600.0,10.5,A*64
$IIRPM,E,2,600.0,10.5,A*67
~$GPRMC,091022.635,A,3500.0,S,13830.0,E,5.0,15.0,220622,,,*02
$IIVHW,15.0,T,15.0,M,5.0,N,9.3,K*5A
$GPVTG,15.0,T,15.0,M,5.0,N,9.3,K*41
$IIHDT,15.0,T*16
$GPGLL,3500.0,S,13830.0,E,091022.635,A*2E
$GPGGA,091022.635,3500.0,S,13830.0,E,1,4,1.5,2.0,M,,,,*27
$GPGSA,A,3,8,11,15,22,,,,,,,,,1.5,1.5,1.5*0A
$GPZDA,091022.635,22,06,2022,-04,00*73
!AIVDO,1,1,,A,17PaewhP0jar0;1cv@h0UPNd0000,0*68
!AIVDM,1,1,,A,17PaewhP0jar0;1cv@h0UPNd0000,0*6A
$WIMWD,285.0,T,285.0,M,11.0,N,5.7,M*68
