$GPGGA,083122.540,3705.414,N,07514.063,W,1,12,1.0,0.0,M,0.0,M,,*75
$GPGSA,A,3,01,02,03,04,05,06,07,08,09,10,11,12,1.0,1.0,1.0*30
$GPRMC,083122.540,A,3705.414,N,07514.063,W,139839.8,100.1,180622,000.0,W*5F
$GPGGA,083123.540,3656.994,N,07426.602,W,1,12,1.0,0.0,M,0.0,M,,*77
$GPGSA,A,3,01,02,03,04,05,06,07,08,09,10,11,12,1.0,1.0,1.0*30
$GPRMC,083123.540,A,3656.994,N,07426.602,W,140098.0,100.1,180622,000.0,W*58
$GPGGA,083124.540,3648.557,N,07339.141,W,1,12,1.0,0.0,M,0.0,M,,*75
$GPGSA,A,3,01,02,03,04,05,06,07,08,09,10,11,12,1.0,1.0,1.0*30
$GPRMC,083124.540,A,3648.557,N,07339.141,W,324861.5,128.9,180622,000.0,W*53
$GPGGA,083125.540,3544.791,N,07220.039,W,1,12,1.0,0.0,M,0.0,M,,*74
$GPGSA,A,3,01,02,03,04,05,06,07,08,09,10,11,12,1.0,1.0,1.0*30
$GPRMC,083125.540,A,3544.791,N,07220.039,W,578623.9,102.8,180622,000.0,W*50
$GPGGA,083126.540,3501.800,N,06910.195,W,1,12,1.0,0.0,M,0.0,M,,*7F
$GPGSA,A,3,01,02,03,04,05,06,07,08,09,10,11,12,1.0,1.0,1.0*30
$GPRMC,083126.540,A,3501.800,N,06910.195,W,238271.3,099.3,180622,000.0,W*59
$GPGGA,083127.540,3448.828,N,06751.094,W,1,12,1.0,0.0,M,0.0,M,,*73
$GPGSA,A,3,01,02,03,04,05,06,07,08,09,10,11,12,1.0,1.0,1.0*30
$GPRMC,083127.540,A,3448.828,N,06751.094,W,2565619.4,088.0,180622,000.0,W*66
$GPGGA,083128.540,3519.042,N,05320.977,W,1,12,1.0,0.0,M,0.0,M,,*78
$GPGSA,A,3,01,02,03,04,05,06,07,08,09,10,11,12,1.0,1.0,1.0*30
$GPRMC,083128.540,A,3519.042,N,05320.977,W,377816.1,097.8,180622,000.0,W*58
$GPGGA,083129.540,3501.800,N,05114.414,W,1,12,1.0,0.0,M,0.0,M,,*73
$GPGSA,A,3,01,02,03,04,05,06,07,08,09,10,11,12,1.0,1.0,1.0*30
$GPRMC,083129.540,A,3501.800,N,05114.414,W,325668.3,103.9,180622,000.0,W*5C
$GPGGA,083130.540,3435.822,N,04928.945,W,1,12,1.0,0.0,M,0.0,M,,*72
$GPGSA,A,3,01,02,03,04,05,06,07,08,09,10,11,12,1.0,1.0,1.0*30
$GPRMC,083130.540,A,3435.822,N,04928.945,W,228084.8,103.3,180622,000.0,W*54
$GPGGA,083131.540,3418.429,N,04815.117,W,1,12,1.0,0.0,M,0.0,M,,*7B
$GPGSA,A,3,01,02,03,04,05,06,07,08,09,10,11,12,1.0,1.0,1.0*30
$GPRMC,083131.540,A,3418.429,N,04815.117,W,395247.5,109.9,180622,000.0,W*5A
$GPGGA,083132.540,3334.681,N,04613.828,W,1,12,1.0,0.0,M,0.0,M,,*7C
$GPGSA,A,3,01,02,03,04,05,06,07,08,09,10,11,12,1.0,1.0,1.0*30
$GPRMC,083132.540,A,3334.681,N,04613.828,W,326972.6,101.8,180622,000.0,W*52
$GPGGA,083133.540,3312.667,N,04428.359,W,1,12,1.0,0.0,M,0.0,M,,*76
$GPGSA,A,3,01,02,03,04,05,06,07,08,09,10,11,12,1.0,1.0,1.0*30
$GPRMC,083133.540,A,3312.667,N,04428.359,W,353346.4,096.5,180622,000.0,W*57
$GPGGA,083134.540,3259.414,N,04232.344,W,1,12,1.0,0.0,M,0.0,M,,*78
$GPGSA,A,3,01,02,03,04,05,06,07,08,09,10,11,12,1.0,1.0,1.0*30
$GPRMC,083134.540,A,3259.414,N,04232.344,W,435633.4,097.1,180622,000.0,W*5C
$GPGGA,083135.540,3241.692,N,04009.961,W,1,12,1.0,0.0,M,0.0,M,,*7B
$GPGSA,A,3,01,02,03,04,05,06,07,08,09,10,11,12,1.0,1.0,1.0*30
$GPRMC,083135.540,A,3241.692,N,04009.961,W,387153.5,096.0,180622,000.0,W*51
$GPGGA,083136.540,3228.362,N,03803.398,W,1,12,1.0,0.0,M,0.0,M,,*74
$GPGSA,A,3,01,02,03,04,05,06,07,08,09,10,11,12,1.0,1.0,1.0*30
$GPRMC,083136.540,A,3228.362,N,03803.398,W,401151.3,091.9,180622,000.0,W*5D
$GPGGA,083137.540,3223.911,N,03551.563,W,1,12,1.0,0.0,M,0.0,M,,*78
$GPGSA,A,3,01,02,03,04,05,06,07,08,09,10,11,12,1.0,1.0,1.0*30
$GPRMC,083137.540,A,3223.911,N,03551.563,W,304758.9,090.0,180622,000.0,W*5E
$GPGGA,083138.540,3223.911,N,03411.367,W,1,12,1.0,0.0,M,0.0,M,,*70
$GPGSA,A,3,01,02,03,04,05,06,07,08,09,10,11,12,1.0,1.0,1.0*30
$GPRMC,083138.540,A,3223.911,N,03411.367,W,336838.0,090.0,180622,000.0,W*57
$GPGGA,083139.540,3223.911,N,03220.625,W,1,12,1.0,0.0,M,0.0,M,,*76
$GPGSA,A,3,01,02,03,04,05,06,07,08,09,10,11,12,1.0,1.0,1.0*30
$GPRMC,083139.540,A,3223.911,N,03220.625,W,290734.6,095.4,180622,000.0,W*58
$GPGGA,083140.540,3214.998,N,03045.703,W,1,12,1.0,0.0,M,0.0,M,,*79
$GPGSA,A,3,01,02,03,04,05,06,07,08,09,10,11,12,1.0,1.0,1.0*30
$GPRMC,083140.540,A,3214.998,N,03045.703,W,112464.9,090.0,180622,000.0,W*56
$GPGGA,083141.540,3214.998,N,03008.789,W,1,12,1.0,0.0,M,0.0,M,,*73
$GPGSA,A,3,01,02,03,04,05,06,07,08,09,10,11,12,1.0,1.0,1.0*30
$GPRMC,083141.540,A,3214.998,N,03008.789,W,193385.6,086.0,180622,000.0,W*55
$GPGGA,083142.540,3219.457,N,02905.508,W,1,12,1.0,0.0,M,0.0,M,,*7D
$GPGSA,A,3,01,02,03,04,05,06,07,08,09,10,11,12,1.0,1.0,1.0*30
$GPRMC,083142.540,A,3219.457,N,02905.508,W,229563.6,079.7,180622,000.0,W*50
$GPGGA,083143.540,3232.809,N,02751.680,W,1,12,1.0,0.0,M,0.0,M,,*7E
$GPGSA,A,3,01,02,03,04,05,06,07,08,09,10,11,12,1.0,1.0,1.0*30
$GPRMC,083143.540,A,3232.809,N,02751.680,W,208187.7,061.8,180622,000.0,W*59
$GPGGA,083144.540,3303.835,N,02653.672,W,1,12,1.0,0.0,M,0.0,M,,*7B
$GPGSA,A,3,01,02,03,04,05,06,07,08,09,10,11,12,1.0,1.0,1.0*30
$GPRMC,083144.540,A,3303.835,N,02653.672,W,298118.0,068.5,180622,000.0,W*50
$GPGGA,083145.540,3339.072,N,02524.023,W,1,12,1.0,0.0,M,0.0,M,,*79
$GPGSA,A,3,01,02,03,04,05,06,07,08,09,10,11,12,1.0,1.0,1.0*30
$GPRMC,083145.540,A,3339.072,N,02524.023,W,219790.0,072.2,180622,000.0,W*51
$GPGGA,083146.540,3400.975,N,02415.469,W,1,12,1.0,0.0,M,0.0,M,,*70
$GPGSA,A,3,01,02,03,04,05,06,07,08,09,10,11,12,1.0,1.0,1.0*30
$GPRMC,083146.540,A,3400.975,N,02415.469,W,213804.4,075.7,180622,000.0,W*56
$GPGGA,083147.540,3418.429,N,02306.914,W,1,12,1.0,0.0,M,0.0,M,,*7E
$GPGSA,A,3,01,02,03,04,05,06,07,08,09,10,11,12,1.0,1.0,1.0*30
$GPRMC,083147.540,A,3418.429,N,02306.914,W,260149.5,062.1,180622,000.0,W*5D
$GPGGA,083148.540,3457.480,N,02153.086,W,1,12,1.0,0.0,M,0.0,M,,*79
$GPGSA,A,3,01,02,03,04,05,06,07,08,09,10,11,12,1.0,1.0,1.0*30
$GPRMC,083148.540,A,3457.480,N,02153.086,W,230947.3,073.7,180622,000.0,W*59
$GPGGA,083149.540,3519.042,N,02039.258,W,1,12,1.0,0.0,M,0.0,M,,*75
$GPGSA,A,3,01,02,03,04,05,06,07,08,09,10,11,12,1.0,1.0,1.0*30
$GPRMC,083149.540,A,3519.042,N,02039.258,W,255786.9,069.2,180622,000.0,W*51
$GPGGA,083150.540,3549.069,N,01920.156,W,1,12,1.0,0.0,M,0.0,M,,*7E
$GPGSA,A,3,01,02,03,04,05,06,07,08,09,10,11,12,1.0,1.0,1.0*30
$GPRMC,083150.540,A,3549.069,N,01920.156,W,253598.1,078.5,180622,000.0,W*5E
$GPGGA,083151.540,3606.143,N,01755.781,W,1,12,1.0,0.0,M,0.0,M,,*7E
$GPGSA,A,3,01,02,03,04,05,06,07,08,09,10,11,12,1.0,1.0,1.0*30
$GPRMC,083151.540,A,3606.143,N,01755.781,W,287334.9,069.2,180622,000.0,W*58
$GPGGA,083152.540,3640.105,N,01626.133,W,1,12,1.0,0.0,M,0.0,M,,*77
$GPGSA,A,3,01,02,03,04,05,06,07,08,09,10,11,12,1.0,1.0,1.0*30
$GPRMC,083152.540,A,3640.105,N,01626.133,W,224258.4,066.7,180622,000.0,W*54
$GPGGA,083153.540,3709.619,N,01517.578,W,1,12,1.0,0.0,M,0.0,M,,*7A
$GPGSA,A,3,01,02,03,04,05,06,07,08,09,10,11,12,1.0,1.0,1.0*30
$GPRMC,083153.540,A,3709.619,N,01517.578,W,191148.4,075.1,180622,000.0,W*52
$GPGGA,083154.540,3726.398,N,01414.297,W,1,12,1.0,0.0,M,0.0,M,,*78
$GPGSA,A,3,01,02,03,04,05,06,07,08,09,10,11,12,1.0,1.0,1.0*30
$GPRMC,083154.540,A,3726.398,N,01414.297,W,262559.8,070.9,180622,000.0,W*5A
$GPGGA,083155.540,3755.612,N,01249.922,W,1,12,1.0,0.0,M,0.0,M,,*71
$GPGSA,A,3,01,02,03,04,05,06,07,08,09,10,11,12,1.0,1.0,1.0*30
$GPRMC,083155.540,A,3755.612,N,01249.922,W,156224.9,076.7,180622,000.0,W*53
$GPGGA,083156.540,3808.073,N,01157.188,W,1,12,1.0,0.0,M,0.0,M,,*70
$GPGSA,A,3,01,02,03,04,05,06,07,08,09,10,11,12,1.0,1.0,1.0*30
$GPRMC,083156.540,A,3808.073,N,01157.188,W,307312.0,078.9,180622,000.0,W*59
$GPGGA,083157.540,3828.764,N,01011.719,W,1,12,1.0,0.0,M,0.0,M,,*7F
$GPGSA,A,3,01,02,03,04,05,06,07,08,09,10,11,12,1.0,1.0,1.0*30
$GPRMC,083157.540,A,3828.764,N,01011.719,W,307312.0,078.9,180622,000.0,W*56
